[null,{"lat":"41.876199675261","name":"Jackson & Austin Terminal","routes":["126"],"lon":"-87.774002552032","id":"1"},{"lat":"41.877106371773","name":"5900 W Jackson","routes":["126"],"lon":"-87.771320343018","id":"2"},{"lat":"41.876986544778","name":"Jackson & Menard","routes":["126"],"lon":"-87.769759297371","id":"3"},{"lat":"41.877058441002","name":"5700 W Jackson","routes":["126"],"lon":"-87.767431139946","id":"4"},null,{"lat":"41.876535194412","name":"Jackson & Lotus","routes":["126"],"lon":"-87.761417627335","id":"6"},{"lat":"41.876559159998","name":"5351 W Jackson","routes":["126"],"lon":"-87.759336233139","id":"7"},{"lat":"41.876599102622","name":"Jackson & Lockwood","routes":["126"],"lon":"-87.757287025452","id":"8"},{"lat":"41.876631056703","name":"Jackson & Laramie","routes":["126"],"lon":"-87.754631638527","id":"9"},{"lat":"41.876647033738","name":"Jackson & Leamington","routes":["126"],"lon":"-87.753183245659","id":"10"},{"lat":"41.876670999282","name":"5047 W Jackson","routes":["126"],"lon":"-87.751284241676","id":"11"},{"lat":"41.876710941836","name":"Jackson & Lavergne","routes":["126"],"lon":"-87.748945355415","id":"12"},{"lat":"41.876726918851","name":"4849 W Jackson","routes":["126"],"lon":"-87.747046351433","id":"13"},{"lat":"41.876790826869","name":"Jackson & Cicero","routes":["126"],"lon":"-87.74482011795","id":"14"},{"lat":"41.876854734824","name":"Jackson & Kilpatrick","routes":["126"],"lon":"-87.742491960526","id":"15"},{"lat":"41.876862723313","name":"Jackson & Kenton","routes":["126"],"lon":"-87.740630507469","id":"16"},{"lat":"41.876886688777","name":"Jackson & Kolmar","routes":["126"],"lon":"-87.739225029945","id":"17"},{"lat":"41.876910654231","name":"Jackson & Kilbourn","routes":["126"],"lon":"-87.737588882446","id":"18"},{"lat":"41.876942608157","name":"Jackson & Kostner","routes":["126"],"lon":"-87.735062241554","id":"19"},{"lat":"41.876970567828","name":"Jackson & Kildare","routes":["126"],"lon":"-87.732616066933","id":"20"},{"lat":"41.876998527487","name":"Jackson & Keeler","routes":["126"],"lon":"-87.730180621147","id":"21"},{"lat":"41.877026487135","name":"Jackson & Karlov","routes":["126"],"lon":"-87.727707624435","id":"22"},{"lat":"41.877066429466","name":"Jackson & Pulaski","routes":["126"],"lon":"-87.725175619125","id":"23"},{"lat":"41.877110366002","name":"Jackson & Springfield","routes":["126"],"lon":"-87.722788453102","id":"24"},{"lat":"41.877134331373","name":"Jackson & Hamlin","routes":["126"],"lon":"-87.720857262611","id":"25"},{"lat":"41.877202233207","name":"Jackson & Central Park","routes":["126"],"lon":"-87.715492844582","id":"26"},{"lat":"41.877218210099","name":"Jackson & St. Louis","routes":["126"],"lon":"-87.713234424591","id":"27"},null,{"lat":"41.877278123408","name":"Jackson & Spaulding","routes":["126"],"lon":"-87.708224058151","id":"29"},{"lat":"41.877298094498","name":"Jackson & Kedzie","routes":["126"],"lon":"-87.70583152771","id":"30"},{"lat":"41.877302088715","name":"Jackson & Albany","routes":["126"],"lon":"-87.70332634449","id":"31"},{"lat":"41.877342030875","name":"Jackson & Sacramento","routes":["126"],"lon":"-87.700826525688","id":"32"},{"lat":"41.877377978797","name":"Jackson & Francisco","routes":["126"],"lon":"-87.698401808739","id":"33"},{"lat":"41.877409932489","name":"Jackson & California","routes":["126"],"lon":"-87.695939540863","id":"34"},{"lat":"41.877437891956","name":"Jackson & Washtenaw","routes":["126"],"lon":"-87.693589925766","id":"35"},{"lat":"41.877457862996","name":"2609 W Jackson","routes":["126"],"lon":"-87.691696286201","id":"36"},null,{"lat":"41.87752975869","name":"Jackson & Western","routes":["126"],"lon":"-87.686144113541","id":"38"},{"lat":"41.877553723903","name":"Jackson & Oakley","routes":["126"],"lon":"-87.683601379395","id":"39"},{"lat":"41.877577689108","name":"Jackson & Leavitt","routes":["126"],"lon":"-87.681600451469","id":"40"},{"lat":"41.877445880373","name":"Jackson & Hoyne","routes":["126"],"lon":"-87.678762674332","id":"41"},{"lat":"41.877465851411","name":"Jackson & Damen","routes":["126"],"lon":"-87.676713466644","id":"42"},null,{"lat":"41.875137186327","name":"Damen & Congress","routes":["50","126"],"lon":"-87.676579356194","id":"44"},null,null,null,{"lat":"41.87409864624","name":"Harrison & Wood","routes":["126"],"lon":"-87.671359777451","id":"48"},{"lat":"41.874130601571","name":"Harrison & Paulina","routes":["126"],"lon":"-87.669171094894","id":"49"},{"lat":"41.875073276656","name":"Ashland & Congress","routes":["9","126"],"lon":"-87.666478157043","id":"50"},{"lat":"41.876559159998","name":"Ashland & Van Buren","routes":["9","126"],"lon":"-87.666510343552","id":"51"},{"lat":"41.877473839824","name":"Malcolm X College","routes":["126"],"lon":"-87.674052715302","id":"52"},{"lat":"41.877521770284","name":"Jackson & Ogden","routes":["126"],"lon":"-87.670994997025","id":"53"},{"lat":"41.877557718105","name":"Jackson & Paulina","routes":["126"],"lon":"-87.668924331665","id":"54"},{"lat":"41.877589671707","name":"Jackson & Ashland","routes":["126"],"lon":"-87.666944861412","id":"55"},{"lat":"41.877641596275","name":"Jackson & Laflin","routes":["126"],"lon":"-87.664021253586","id":"56"},{"lat":"41.877685532416","name":"Jackson & Loomis","routes":["126"],"lon":"-87.661660909653","id":"57"},null,{"lat":"41.877757427854","name":"Jackson & Racine","routes":["126"],"lon":"-87.656784653664","id":"59"},{"lat":"41.877805358101","name":"Jackson & Aberdeen","routes":["126"],"lon":"-87.654354572296","id":"60"},{"lat":"41.877849294129","name":"Jackson & Morgan","routes":["126"],"lon":"-87.651677727699","id":"61"},null,{"lat":"41.877885241766","name":"Jackson & Peoria","routes":["126"],"lon":"-87.649269104004","id":"63"},{"lat":"41.877929177739","name":"Jackson & Halsted","routes":["126"],"lon":"-87.646973133087","id":"64"},{"lat":"41.877961131155","name":"Jackson & Desplaines","routes":["7","60","126"],"lon":"-87.64380812645","id":"65"},null,{"lat":"41.877993084555","name":"Jackson & Canal","routes":["121"],"lon":"-87.639774084091","id":"67"},{"lat":"41.878068973816","name":"Jackson & Franklin","routes":["1","7","28","126","130","151","156"],"lon":"-87.635466456413","id":"68"},{"lat":"41.878100927162","name":"Jackson & Financial Place","routes":["1","7","28","126","130","132","151"],"lon":"-87.632880806923","id":"69"},{"lat":"41.878136874657","name":"Jackson & Dearborn","routes":["1","7","28","126"],"lon":"-87.629533410072","id":"70"},{"lat":"41.878160839643","name":"Jackson & State","routes":["1","7","28","126"],"lon":"-87.62806892395","id":"71"},{"lat":"41.878224746228","name":"Jackson & Wabash","routes":["1","7","28","126"],"lon":"-87.625772953033","id":"72"},{"lat":"41.876275566652","name":"Michigan & Van Buren/Congress","routes":["1","3","4","7","J14","26","28","126","132","143","147"],"lon":"-87.624405026436","id":"73"},{"lat":"41.87486956415","name":"Congress Plaza & Michigan","routes":["7","126","132","143","147"],"lon":"-87.623605728149","id":"74"},{"lat":"41.877006515959","name":"Michigan & Van Buren","routes":["1","7","28","126"],"lon":"-87.624126076698","id":"75"},{"lat":"41.878124892161","name":"Michigan & Jackson","routes":["3","4","6","J14","26","143"],"lon":"-87.624158263206","id":"76"},{"lat":"41.879538811203","name":"Adams & Wabash","routes":["1","7","28","126","151"],"lon":"-87.625778317451","id":"77"},null,null,{"lat":"41.879391030168","name":"Adams & Wells","routes":["1","7","28","126","134","135","136","130","151","156"],"lon":"-87.634109258652","id":"80"},null,null,null,{"lat":"41.876802809615","name":"Van Buren & Canal","routes":["37"],"lon":"-87.639489769936","id":"84"},null,{"lat":"41.876750884365","name":"Van Buren & Jefferson","routes":["125","126"],"lon":"-87.642327547073","id":"86"},{"lat":"41.876754878617","name":"Van Buren & Desplaines","routes":["126"],"lon":"-87.64380812645","id":"87"},{"lat":"41.876726918851","name":"Van Buren & Halsted","routes":["126"],"lon":"-87.647037506104","id":"88"},{"lat":"41.876667005025","name":"Van Buren & Peoria","routes":["126"],"lon":"-87.649376392365","id":"89"},null,null,{"lat":"41.876595108361","name":"Van Buren & Aberdeen","routes":["126"],"lon":"-87.65439748764","id":"92"},{"lat":"41.876555165735","name":"Van Buren & Racine","routes":["126"],"lon":"-87.656790018082","id":"93"},{"lat":"41.876523211616","name":"Van Buren & Throop","routes":["126"],"lon":"-87.65930056572","id":"94"},null,{"lat":"41.876423354891","name":"Van Buren & Laflin","routes":["126"],"lon":"-87.66406416893","id":"96"},{"lat":"41.8764073778","name":"Van Buren & Ashland","routes":["126"],"lon":"-87.666456699371","id":"97"},null,{"lat":"41.876307520894","name":"Van Buren & Ogden","routes":["126"],"lon":"-87.671847939491","id":"99"},{"lat":"41.876279560933","name":"Malcolm X College","routes":["126"],"lon":"-87.674009799957","id":"100"},{"lat":"41.876255595242","name":"Van Buren & Damen","routes":["126"],"lon":"-87.676075100899","id":"101"},null,{"lat":"41.87421847865","name":"Harrison & Paulina","routes":["126"],"lon":"-87.66757786274","id":"103"},null,null,null,{"lat":"41.874114623908","name":"Harrison & Ogden","routes":["7","126"],"lon":"-87.674514055252","id":"107"},{"lat":"41.87407867415","name":"Harrison & Damen","routes":["7","126"],"lon":"-87.676305770874","id":"108"},null,null,{"lat":"41.877381973009","name":"Damen & Jackson","routes":["50"],"lon":"-87.676504254341","id":"111"},null,null,null,null,null,null,{"lat":"41.8775457355","name":"Jackson & Rockwell","routes":["126"],"lon":"-87.690918445587","id":"118"},{"lat":"41.877493810853","name":"Jackson & Washtenaw","routes":["126"],"lon":"-87.6939868927","id":"119"},{"lat":"41.877465851411","name":"Jackson & California","routes":["126"],"lon":"-87.69646525383","id":"120"},{"lat":"41.877453868789","name":"Jackson & Francisco","routes":["126"],"lon":"-87.698782682419","id":"121"},{"lat":"41.877413926699","name":"Jackson & Sacramento","routes":["126"],"lon":"-87.701341509819","id":"122"},{"lat":"41.877385967221","name":"Jackson & Albany","routes":["126"],"lon":"-87.703782320023","id":"123"},{"lat":"41.877350019304","name":"Jackson & Kedzie","routes":["126"],"lon":"-87.706282138824","id":"124"},{"lat":"41.877334042445","name":"Jackson & Spaulding","routes":["126"],"lon":"-87.708599567413","id":"125"},{"lat":"41.877310077149","name":"Jackson & Homan","routes":["126"],"lon":"-87.711174488068","id":"126"},{"lat":"41.877274129189","name":"Jackson & St. Louis","routes":["126"],"lon":"-87.71367430687","id":"127"},{"lat":"41.876958585113","name":"Central Park & Jackson","routes":["126"],"lon":"-87.715798616409","id":"128"},{"lat":"41.877198238984","name":"Jackson & Hamlin","routes":["126"],"lon":"-87.721071839333","id":"129"},{"lat":"41.877166285186","name":"Jackson & Springfield","routes":["126"],"lon":"-87.723357081413","id":"130"},{"lat":"41.877122348689","name":"Jackson & Pulaski","routes":["126"],"lon":"-87.725835442543","id":"131"},{"lat":"41.877090394853","name":"Jackson & Karlov","routes":["126"],"lon":"-87.728163599968","id":"132"},{"lat":"41.877054446769","name":"Jackson & Keeler","routes":["126"],"lon":"-87.730631232262","id":"133"},{"lat":"41.877026487135","name":"Jackson & Kildare","routes":["126"],"lon":"-87.733157873154","id":"134"},{"lat":"41.876994533251","name":"Jackson & Kostner","routes":["126"],"lon":"-87.735539674759","id":"135"},{"lat":"41.876974562066","name":"Jackson & Kilbourn","routes":["126"],"lon":"-87.737991213799","id":"136"},{"lat":"41.876950596635","name":"Jackson & Kolmar","routes":["126"],"lon":"-87.739471793175","id":"137"},{"lat":"41.876934619677","name":"Jackson & Kenton","routes":["126"],"lon":"-87.74079144001","id":"138"},{"lat":"41.876910654231","name":"Jackson & Kilpatrick","routes":["126"],"lon":"-87.742856740952","id":"139"},{"lat":"41.876818786607","name":"Jackson & Cicero","routes":["126"],"lon":"-87.74542093277","id":"140"},{"lat":"41.87678683262","name":"4900 W Jackson","routes":["126"],"lon":"-87.747207283974","id":"141"},{"lat":"41.876762867119","name":"Jackson & Lavergne","routes":["126"],"lon":"-87.749412059784","id":"142"},{"lat":"41.876734907357","name":"5056 W Jackson","routes":["126"],"lon":"-87.751638293266","id":"143"},{"lat":"41.87671493609","name":"Jackson & Leamington","routes":["126"],"lon":"-87.753531932831","id":"144"},{"lat":"41.876686976307","name":"Jackson & Laramie","routes":["126"],"lon":"-87.755205631256","id":"145"},{"lat":"41.876655022254","name":"Jackson & Lockwood","routes":["126"],"lon":"-87.757855653763","id":"146"},{"lat":"41.876631056703","name":"5400 W Jackson","routes":["126"],"lon":"-87.759684920311","id":"147"},{"lat":"41.8765911141","name":"Jackson & Lotus","routes":["126"],"lon":"-87.761782407761","id":"148"},{"lat":"41.876543182942","name":"Jackson & Central","routes":["126"],"lon":"-87.764609456062","id":"149"},{"lat":"41.877110366002","name":"5700 W Jackson","routes":["126"],"lon":"-87.768031954765","id":"150"},{"lat":"41.877062435234","name":"Jackson & Menard","routes":["126"],"lon":"-87.769823670387","id":"151"},{"lat":"41.877182262087","name":"Jackson & Mayfield","routes":["126"],"lon":"-87.771379351616","id":"152"},{"lat":"41.872536809953","name":"Harrison & Central Terminal","routes":["7"],"lon":"-87.764813303947","id":"153"},{"lat":"41.872828408884","name":"Harrison & Lotus","routes":["7"],"lon":"-87.761771678925","id":"154"},{"lat":"41.87286036485","name":"5400 W Harrison","routes":["7"],"lon":"-87.759615182877","id":"155"},{"lat":"41.872884331814","name":"Harrison & Lockwood","routes":["7"],"lon":"-87.757592797279","id":"156"},{"lat":"41.872912293261","name":"Harrison & Laramie","routes":["7"],"lon":"-87.754899859428","id":"157"},{"lat":"41.872936260206","name":"Harrison & Leamington","routes":["7"],"lon":"-87.753301262856","id":"158"},{"lat":"41.872972210606","name":"Harrison & Lavergne","routes":["7"],"lon":"-87.74936914444","id":"159"},{"lat":"41.873080061686","name":"Harrison & Cicero","routes":["7"],"lon":"-87.745265364647","id":"160"},{"lat":"41.873163945733","name":"Harrison & Kilpatrick","routes":["7"],"lon":"-87.742733359337","id":"161"},{"lat":"41.873191907058","name":"4630 W Harrison","routes":["7"],"lon":"-87.740893363953","id":"162"},{"lat":"41.873227857314","name":"Harrison & Kolmar ","routes":["7"],"lon":"-87.739498615265","id":"163"},{"lat":"41.873251824141","name":"Harrison & Kilbourn ","routes":["7"],"lon":"-87.737991213799","id":"164"},{"lat":"41.873739147663","name":"Harrison & Kostner","routes":["7"],"lon":"-87.735577225685","id":"165"},{"lat":"41.871662005179","name":"Kostner & Lexington","routes":["7"],"lon":"-87.735196352005","id":"166"},{"lat":"41.87030383706","name":"Fifth Avenue & Kostner","routes":["7"],"lon":"-87.734981775284","id":"167"},{"lat":"41.870903032434","name":"Fifth Avenue & Kildare","routes":["7"],"lon":"-87.73278772831","id":"168"},{"lat":"41.871650021469","name":"Fifth Avenue & Keeler","routes":["7"],"lon":"-87.730116248131","id":"169"},{"lat":"41.872353061998","name":"Fifth Avenue & Karlov","routes":["7"],"lon":"-87.727568149567","id":"170"},{"lat":"41.872912293261","name":"Fifth Avenue & Pulaski","routes":["7"],"lon":"-87.725551128387","id":"171"},{"lat":"41.873447552887","name":"Harrison & Springfield","routes":["7"],"lon":"-87.723104953766","id":"172"},null,{"lat":"41.873483503","name":"Harrison & Independence","routes":["7"],"lon":"-87.719532251358","id":"174"},{"lat":"41.873499480821","name":"Harrison & Lawndale","routes":["7"],"lon":"-87.718228697777","id":"175"},null,{"lat":"41.873571380968","name":"Harrison & St. Louis","routes":["7"],"lon":"-87.713352441788","id":"177"},{"lat":"41.873591353217","name":"Harrison & Homan","routes":["7"],"lon":"-87.710906267166","id":"178"},{"lat":"41.873635292142","name":"Harrison & Spaulding","routes":["7"],"lon":"-87.708540558815","id":"179"},null,{"lat":"41.873679231036","name":"Harrison & Albany","routes":["7"],"lon":"-87.703557014465","id":"181"},{"lat":"41.873703197694","name":"Harrison & Sacramento","routes":["7"],"lon":"-87.701105475426","id":"182"},{"lat":"41.873727164342","name":"Harrison & Francisco","routes":["7"],"lon":"-87.69869685173","id":"183"},null,{"lat":"41.873779092049","name":"Harrison & Washtenaw","routes":["7"],"lon":"-87.693793773651","id":"185"},{"lat":"41.873799064233","name":"Harrison & Maplewood ","routes":["7"],"lon":"-87.690703868866","id":"186"},{"lat":"41.873827025279","name":"Harrison & Campbell","routes":["7"],"lon":"-87.688761949539","id":"187"},{"lat":"41.873858980746","name":"Harrison & Western","routes":["7"],"lon":"-87.686401605606","id":"188"},{"lat":"41.873886941767","name":"Harrison & Oakley","routes":["7"],"lon":"-87.68393933773","id":"189"},{"lat":"41.873930880489","name":"Harrison & Leavitt","routes":["7"],"lon":"-87.681509256363","id":"190"},{"lat":"41.87396683033","name":"Harrison & Hoyne","routes":["7"],"lon":"-87.679030895233","id":"191"},{"lat":"41.874010768997","name":"Harrison & Damen","routes":["7"],"lon":"-87.676659822464","id":"192"},{"lat":"41.874110629491","name":"Harrison & Ashland","routes":["7"],"lon":"-87.666451334953","id":"193"},{"lat":"41.874106635074","name":"Harrison & Laflin","routes":["7"],"lon":"-87.664262652397","id":"194"},{"lat":"41.874110629491","name":"Harrison & Loomis","routes":["7"],"lon":"-87.661934494972","id":"195"},{"lat":"41.874134595987","name":"1335 W Harrison","routes":["7"],"lon":"-87.660233974457","id":"196"},{"lat":"41.874170545713","name":"1231 W Harrison","routes":["7"],"lon":"-87.658442258835","id":"197"},{"lat":"41.874202501008","name":"Harrison & Racine","routes":["7"],"lon":"-87.656666636467","id":"198"},{"lat":"41.874246439513","name":"1100 W Harrison","routes":["7","60"],"lon":"-87.654349207878","id":"199"},{"lat":"41.874286383582","name":"Harrison & Morgan","routes":["7","60"],"lon":"-87.651940584183","id":"200"},{"lat":"41.874346299639","name":"900 W Harrison","routes":["7","60"],"lon":"-87.648807764053","id":"201"},null,null,{"lat":"41.877857282494","name":"Halsted & Jackson","routes":["7","8","60"],"lon":"-87.647193074226","id":"204"},null,{"lat":"41.874442165214","name":"Harrison & Halsted","routes":["7","60"],"lon":"-87.647734880447","id":"206"},{"lat":"41.87449409234","name":"900 W Harrison","routes":["7","60"],"lon":"-87.649258375168","id":"207"},{"lat":"41.874450154005","name":"Harrison & Morgan","routes":["7","60"],"lon":"-87.651591897011","id":"208"},{"lat":"41.874398226843","name":"1100 W Harrison","routes":["7","60"],"lon":"-87.654440402985","id":"209"},{"lat":"41.874354288443","name":"Harrison & Racine","routes":["7"],"lon":"-87.657428383827","id":"210"},{"lat":"41.87433032203","name":"1232 W Harrison","routes":["7"],"lon":"-87.658452987671","id":"211"},{"lat":"41.874310350012","name":"1336 W Harrison","routes":["7"],"lon":"-87.660196423531","id":"212"},{"lat":"41.874282389176","name":"Harrison & Loomis","routes":["7"],"lon":"-87.661617994308","id":"213"},{"lat":"41.874274400364","name":"Harrison & Laflin","routes":["7"],"lon":"-87.664128541946","id":"214"},{"lat":"41.874270405958","name":"Harrison & Ashland","routes":["7"],"lon":"-87.666403055191","id":"215"},{"lat":"41.874030741108","name":"Harrison & Hoyne","routes":["7"],"lon":"-87.67874121666","id":"216"},{"lat":"41.873994791303","name":"Harrison & Leavitt","routes":["7"],"lon":"-87.681203484535","id":"217"},{"lat":"41.873954847052","name":"Harrison & Oakley","routes":["7"],"lon":"-87.683644294739","id":"218"},{"lat":"41.873930880489","name":"Harrison & Western","routes":["7"],"lon":"-87.686026096344","id":"219"},{"lat":"41.873898925058","name":"Harrison & Campbell","routes":["7"],"lon":"-87.688499093056","id":"220"},{"lat":"41.873878952905","name":"Harrison & Maplewood ","routes":["7"],"lon":"-87.690430283546","id":"221"},{"lat":"41.873843003015","name":"Harrison & Washtenaw","routes":["7"],"lon":"-87.693573832512","id":"222"},{"lat":"41.873807053104","name":"Harrison & California","routes":["7"],"lon":"-87.695885896683","id":"223"},{"lat":"41.873803058669","name":"Harrison & Francisco","routes":["7"],"lon":"-87.698353528976","id":"224"},{"lat":"41.873771103174","name":"Harrison & Sacramento","routes":["7"],"lon":"-87.700837254524","id":"225"},{"lat":"41.873743142102","name":"Harrison & Albany","routes":["7"],"lon":"-87.703267335892","id":"226"},{"lat":"41.873715181019","name":"Harrison & Kedzie","routes":["7"],"lon":"-87.705863714218","id":"227"},{"lat":"41.87494545712","name":"Congress & Kedzie","routes":["7"],"lon":"-87.706126570702","id":"228"},{"lat":"41.874621912778","name":"Congress & Spaulding","routes":["7"],"lon":"-87.708207964897","id":"229"},{"lat":"41.874577974531","name":"Congress & Homan","routes":["7"],"lon":"-87.71059513092","id":"230"},{"lat":"41.874546019424","name":"Congress & St. Louis","routes":["7"],"lon":"-87.71274626255","id":"231"},null,{"lat":"41.874522053082","name":"3700 W Congress","routes":["7","126"],"lon":"-87.717928290367","id":"233"},{"lat":"41.874510069908","name":"Congress & Hamlin/Independence","routes":["7","126"],"lon":"-87.719628810883","id":"234"},{"lat":"41.874442165214","name":"Congress & Springfield","routes":["7"],"lon":"-87.722606062889","id":"235"},null,{"lat":"41.874358282844","name":"Congress & Karlov","routes":["7"],"lon":"-87.727734446526","id":"237"},null,{"lat":"41.874306355608","name":"Congress & Kildare","routes":["7"],"lon":"-87.732637524605","id":"239"},{"lat":"41.873759119859","name":"Harrison & Kostner","routes":["7"],"lon":"-87.735705971718","id":"240"},{"lat":"41.8733197301","name":"Harrison & Kilbourn ","routes":["7"],"lon":"-87.73747086525","id":"241"},{"lat":"41.873287774363","name":"Harrison & Kolmar ","routes":["7"],"lon":"-87.739133834839","id":"242"},{"lat":"41.87326780202","name":"4630 W Harrison","routes":["7"],"lon":"-87.740796804428","id":"243"},{"lat":"41.873227857314","name":"Harrison & Kilpatrick","routes":["7"],"lon":"-87.742406129837","id":"244"},null,{"lat":"41.87306408376","name":"Harrison & Lavergne","routes":["7","57"],"lon":"-87.748886346817","id":"246"},{"lat":"41.872992183042","name":"Harrison & Leamington","routes":["7","57"],"lon":"-87.75307059288","id":"247"},{"lat":"41.872980199581","name":"Harrison & Laramie","routes":["7","57"],"lon":"-87.754492163658","id":"248"},{"lat":"41.872944249185","name":"Harrison & Lockwood","routes":["7"],"lon":"-87.757281661034","id":"249"},{"lat":"41.872912293261","name":"5400 W Harrison","routes":["7"],"lon":"-87.759572267532","id":"250"},null,{"lat":"41.872912293261","name":"Harrison & Central","routes":["7"],"lon":"-87.76448071003","id":"252"},null,null,null,null,{"lat":"41.865581980996","name":"5500 W Roosevelt","routes":["12"],"lon":"-87.762812376022","id":"257"},{"lat":"41.865641905213","name":"Roosevelt & 54th Avenue","routes":["12"],"lon":"-87.759464979172","id":"258"},{"lat":"41.865681854659","name":"5300 W. Roosevelt","routes":["12"],"lon":"-87.75704562664","id":"259"},{"lat":"41.865725799021","name":"Roosevelt & Laramie","routes":["12"],"lon":"-87.754712104797","id":"260"},{"lat":"41.865753763599","name":"Roosevelt & 51st Avenue","routes":["12"],"lon":"-87.752153277397","id":"261"},{"lat":"41.865789718039","name":"Roosevelt & 50th Avenue","routes":["12"],"lon":"-87.749792933464","id":"262"},{"lat":"41.865821677524","name":"Roosevelt & 49th Avenue","routes":["12"],"lon":"-87.747293114662","id":"263"},null,{"lat":"41.865881601515","name":"Roosevelt & 47th Avenue","routes":["12"],"lon":"-87.742422223091","id":"265"},null,null,{"lat":"41.865969489935","name":"Roosevelt & Kilbourn","routes":["12"],"lon":"-87.737503051758","id":"268"},null,{"lat":"41.866029413787","name":"Roosevelt & Kildare","routes":["12"],"lon":"-87.732621431351","id":"270"},null,{"lat":"41.866089337584","name":"Roosevelt & Karlov","routes":["12"],"lon":"-87.727734446526","id":"272"},null,{"lat":"41.866165240979","name":"Roosevelt & Springfield","routes":["12"],"lon":"-87.722863554955","id":"274"},{"lat":"41.866205190099","name":"Roosevelt & Independence","routes":["12"],"lon":"-87.720320820808","id":"275"},null,{"lat":"41.866225164649","name":"Roosevelt & Lawndale","routes":["12"],"lon":"-87.717987298965","id":"277"},{"lat":"41.866257123916","name":"Roosevelt & Central Park","routes":["12"],"lon":"-87.71560549736","id":"278"},{"lat":"41.866289083168","name":"Roosevelt & St. Louis","routes":["12"],"lon":"-87.713094949722","id":"279"},{"lat":"41.866337022015","name":"Roosevelt & Homan","routes":["12"],"lon":"-87.710729241371","id":"280"},null,null,{"lat":"41.866408930218","name":"Roosevelt & Albany","routes":["12"],"lon":"-87.703304886818","id":"283"},{"lat":"41.866440889394","name":"Roosevelt & Sacramento","routes":["12"],"lon":"-87.700928449631","id":"284"},{"lat":"41.866456868976","name":"Roosevelt & Francisco","routes":["12"],"lon":"-87.698423266411","id":"285"},null,{"lat":"41.866500812805","name":"Roosevelt & Washtenaw","routes":["12"],"lon":"-87.693536281586","id":"287"},{"lat":"41.866504807697","name":"Roosevelt & Talman","routes":["12"],"lon":"-87.692291736603","id":"288"},null,null,null,null,null,null,null,{"lat":"41.866684577582","name":"Roosevelt & Wolcott","routes":["12"],"lon":"-87.673623561859","id":"296"},{"lat":"41.86671653662","name":"Roosevelt & Wood","routes":["12"],"lon":"-87.671456336975","id":"297"},{"lat":"41.866752490518","name":"Roosevelt & Paulina","routes":["12"],"lon":"-87.669015526772","id":"298"},null,{"lat":"41.866788444396","name":"Roosevelt & Laflin","routes":["12"],"lon":"-87.664048075676","id":"300"},null,{"lat":"41.8668723367","name":"Roosevelt & Throop","routes":["12"],"lon":"-87.659332752228","id":"302"},{"lat":"41.866912285377","name":"Roosevelt & Racine","routes":["12"],"lon":"-87.656800746918","id":"303"},null,{"lat":"41.86695223403","name":"Roosevelt & Blue Island","routes":["12"],"lon":"-87.653641104698","id":"305"},{"lat":"41.866996177518","name":"Roosevelt & Morgan","routes":["12"],"lon":"-87.651221752167","id":"306"},{"lat":"41.867020146681","name":"900 W Roosevelt","routes":["12"],"lon":"-87.649419307709","id":"307"},null,null,{"lat":"41.867120018097","name":"Roosevelt & Jefferson","routes":["12","18","62"],"lon":"-87.642295360565","id":"310"},null,{"lat":"41.867151976917","name":"Roosevelt & Canal","routes":["12","18","62"],"lon":"-87.638840675354","id":"312"},{"lat":"41.867199915117","name":"327 W Roosevelt","routes":["12","18","62"],"lon":"-87.635573744774","id":"313"},null,{"lat":"41.86727182235","name":"Roosevelt & Clark","routes":["12","18","62"],"lon":"-87.630681395531","id":"315"},{"lat":"41.867311770778","name":"Roosevelt & State","routes":["12","18","130","146","192"],"lon":"-87.627108693123","id":"316"},null,{"lat":"41.867343729502","name":"Roosevelt & Michigan","routes":["12"],"lon":"-87.624329924583","id":"318"},null,null,null,null,null,null,null,{"lat":"41.867367698535","name":"327 W Roosevelt","routes":["12","18","62"],"lon":"-87.635536193848","id":"326"},{"lat":"41.867339734662","name":"Roosevelt & Canal","routes":["12","18","62"],"lon":"-87.639044523239","id":"327"},{"lat":"41.867315765619","name":"Roosevelt & Clinton","routes":["12","18","62"],"lon":"-87.640584111214","id":"328"},{"lat":"41.86729579141","name":"Roosevelt & Jefferson","routes":["12","18","62"],"lon":"-87.642043232918","id":"329"},null,null,{"lat":"41.867211899662","name":"900 W Roosevelt","routes":["12"],"lon":"-87.649462223053","id":"332"},{"lat":"41.867183935721","name":"Roosevelt & Morgan","routes":["12"],"lon":"-87.650862336159","id":"333"},{"lat":"41.867151976917","name":"Roosevelt & Blue Island","routes":["12"],"lon":"-87.653083205223","id":"334"},{"lat":"41.86711202839","name":"Roosevelt & May","routes":["12"],"lon":"-87.655030488968","id":"335"},{"lat":"41.867076074693","name":"Roosevelt & Racine","routes":["12"],"lon":"-87.65649497509","id":"336"},{"lat":"41.86703213126","name":"Roosevelt & Throop","routes":["12"],"lon":"-87.659032344818","id":"337"},null,null,{"lat":"41.86692027511","name":"Roosevelt & Ashland","routes":["12"],"lon":"-87.66616165638","id":"340"},{"lat":"41.866936254572","name":"Roosevelt & Paulina","routes":["12"],"lon":"-87.668795585632","id":"341"},{"lat":"41.866928264841","name":"Roosevelt & Wood","routes":["12"],"lon":"-87.671113014221","id":"342"},{"lat":"41.866908290511","name":"Roosevelt & Wolcott","routes":["12"],"lon":"-87.67343044281","id":"343"},{"lat":"41.866848367481","name":"Roosevelt & Damen","routes":["12"],"lon":"-87.67596244812","id":"344"},null,null,null,{"lat":"41.866644628762","name":"Roosevelt & Western","routes":["12"],"lon":"-87.685843706131","id":"348"},{"lat":"41.866616664574","name":"Roosevelt & Campbell ","routes":["12"],"lon":"-87.688778042793","id":"349"},{"lat":"41.866576715712","name":"Roosevelt & Talman","routes":["12"],"lon":"-87.692340016365","id":"350"},{"lat":"41.866564731048","name":"Roosevelt & Washtenaw","routes":["12"],"lon":"-87.693310976028","id":"351"},null,{"lat":"41.866524782154","name":"Roosevelt & Francisco","routes":["12"],"lon":"-87.698214054108","id":"353"},{"lat":"41.866500812805","name":"Roosevelt & Sacramento","routes":["12"],"lon":"-87.700542211533","id":"354"},{"lat":"41.866472848553","name":"Roosevelt & Albany","routes":["12"],"lon":"-87.703063488007","id":"355"},{"lat":"41.86645287408","name":"Roosevelt & Kedzie","routes":["12"],"lon":"-87.70550429821","id":"356"},{"lat":"41.866428904705","name":"Roosevelt & Spaulding","routes":["12"],"lon":"-87.707934379578","id":"357"},{"lat":"41.866392950624","name":"Roosevelt & Homan","routes":["12"],"lon":"-87.710439562798","id":"358"},{"lat":"41.866360991425","name":"Roosevelt & St. Louis","routes":["12"],"lon":"-87.712858915329","id":"359"},null,{"lat":"41.866293078073","name":"Roosevelt & Lawndale","routes":["12"],"lon":"-87.717788815498","id":"361"},{"lat":"41.866273103544","name":"Roosevelt & Independence","routes":["12"],"lon":"-87.719382047653","id":"362"},null,{"lat":"41.866233154467","name":"Roosevelt & Springfield","routes":["12"],"lon":"-87.722579240799","id":"364"},{"lat":"41.866201195188","name":"Roosevelt & Pulaski","routes":["12"],"lon":"-87.725282907486","id":"365"},{"lat":"41.866153256239","name":"Roosevelt & Karlov","routes":["12"],"lon":"-87.727525234222","id":"366"},{"lat":"41.866125291835","name":"Roosevelt & Keeler","routes":["12"],"lon":"-87.730137705803","id":"367"},{"lat":"41.866097327419","name":"Roosevelt & Kildare","routes":["12"],"lon":"-87.732396125793","id":"368"},{"lat":"41.866061373153","name":"Roosevelt & Kostner","routes":["12"],"lon":"-87.734831571579","id":"369"},{"lat":"41.866029413787","name":"Roosevelt & Kilbourn","routes":["12"],"lon":"-87.737127542496","id":"370"},null,null,{"lat":"41.865957505157","name":"Roosevelt & 47th Avenue","routes":["12"],"lon":"-87.74228811264","id":"373"},null,{"lat":"41.865885596446","name":"Roosevelt & 49th Avenue","routes":["12"],"lon":"-87.747024893761","id":"375"},{"lat":"41.865861626858","name":"Roosevelt & 50th Avenue","routes":["12"],"lon":"-87.749465703964","id":"376"},{"lat":"41.865821677524","name":"Roosevelt & 51st Avenue","routes":["12"],"lon":"-87.75200843811","id":"377"},null,{"lat":"41.865745773721","name":"5300 W Roosevelt","routes":["12"],"lon":"-87.756922245026","id":"379"},{"lat":"41.865705824314","name":"Roosevelt & 54th Avenue","routes":["12"],"lon":"-87.759271860123","id":"380"},{"lat":"41.865637910267","name":"5500 W Roosevelt","routes":["12"],"lon":"-87.762721180916","id":"381"},{"lat":"41.86562193048","name":"Roosevelt & Central","routes":["12"],"lon":"-87.764110565186","id":"382"},null,null,null,{"lat":"41.880309663492","name":"Madison & Austin Terminal","routes":["20"],"lon":"-87.774034738541","id":"386"},null,{"lat":"41.880070021289","name":"Madison & Mayfield","routes":["20"],"lon":"-87.771502733231","id":"388"},{"lat":"41.880085997464","name":"Madison & Menard","routes":["20"],"lon":"-87.769914865494","id":"389"},{"lat":"41.880109961719","name":"Madison & Waller","routes":["20"],"lon":"-87.768219709396","id":"390"},{"lat":"41.880141914044","name":"Madison & Parkside","routes":["20"],"lon":"-87.766642570496","id":"391"},null,{"lat":"41.880225788823","name":"Madison & Pine","routes":["20"],"lon":"-87.763220071793","id":"393"},{"lat":"41.880245758992","name":"Madison & Lotus ","routes":["20"],"lon":"-87.761964797974","id":"394"},{"lat":"41.88027771125","name":"Madison & Long","routes":["20"],"lon":"-87.760038971901","id":"395"},{"lat":"41.88031765155","name":"Madison & Lockwood ","routes":["20"],"lon":"-87.757818102837","id":"396"},{"lat":"41.88036158585","name":"Madison & Laramie","routes":["20"],"lon":"-87.755339741707","id":"397"},null,null,null,null,{"lat":"41.880505370624","name":"Madison & Kilpatrick","routes":["20"],"lon":"-87.743006944656","id":"402"},{"lat":"41.880517352674","name":"Madison & Kenton","routes":["20"],"lon":"-87.740727066994","id":"403"},null,null,{"lat":"41.880625191021","name":"Madison & Kildare","routes":["20"],"lon":"-87.733200788498","id":"406"},null,null,{"lat":"41.880705071161","name":"Madison & Pulaski","routes":["20"],"lon":"-87.725915908813","id":"409"},{"lat":"41.88071305917","name":"Madison & Springfield","routes":["20"],"lon":"-87.723416090012","id":"410"},null,{"lat":"41.880820897187","name":"Madison & Central Park","routes":["20"],"lon":"-87.715991735458","id":"412"},{"lat":"41.880844861166","name":"Madison & St. Louis","routes":["20"],"lon":"-87.713738679886","id":"413"},null,{"lat":"41.880912759058","name":"Madison & Spaulding","routes":["20"],"lon":"-87.708578109741","id":"415"},{"lat":"41.880936723003","name":"Madison & Kedzie","routes":["20"],"lon":"-87.706416249275","id":"416"},{"lat":"41.88097666289","name":"Madison & Albany ","routes":["20"],"lon":"-87.703138589859","id":"417"},null,null,{"lat":"41.881060536573","name":"Madison & California","routes":["20"],"lon":"-87.696009278297","id":"420"},{"lat":"41.881058333332","name":"Madison & Washtenaw","routes":["20"],"lon":"-87.694191666665","id":"421"},null,{"lat":"41.88112044628","name":"Madison & Campbell ","routes":["20"],"lon":"-87.688965797424","id":"423"},null,null,null,{"lat":"41.881244259495","name":"Madison & Hoyne","routes":["20"],"lon":"-87.679315209389","id":"427"},{"lat":"41.881296181094","name":"Madison & Damen","routes":["20"],"lon":"-87.67672419548","id":"428"},{"lat":"41.881320144895","name":"Madison & United Center (1900 W)","routes":["20"],"lon":"-87.674245834351","id":"429"},{"lat":"41.881360084543","name":"Madison & Wood","routes":["20"],"lon":"-87.671853303909","id":"430"},{"lat":"41.881372066432","name":"Madison & Paulina","routes":["20"],"lon":"-87.669519782066","id":"431"},{"lat":"41.881416000008","name":"Madison & Ashland","routes":["20"],"lon":"-87.667025327682","id":"432"},null,null,{"lat":"41.881499873115","name":"Madison & Throop ","routes":["20"],"lon":"-87.659772634506","id":"435"},{"lat":"41.881535818698","name":"Madison & Racine ","routes":["20"],"lon":"-87.657315731049","id":"436"},{"lat":"41.881571764261","name":"Madison & Aberdeen ","routes":["20"],"lon":"-87.654896378517","id":"437"},null,{"lat":"41.881667618997","name":"Madison & Peoria","routes":["20"],"lon":"-87.649816274643","id":"439"},{"lat":"41.882007103365","name":"Halsted & Madison","routes":["8","20"],"lon":"-87.647316455841","id":"440"},null,{"lat":"41.883145361316","name":"Washington & Jefferson","routes":["J14","20","56"],"lon":"-87.64285326004","id":"442"},{"lat":"41.883157342871","name":"Washington & Canal","routes":["20","56"],"lon":"-87.640010118484","id":"443"},null,{"lat":"41.883181305974","name":"Washington & Franklin","routes":["20","56","60","157"],"lon":"-87.635498642921","id":"445"},{"lat":"41.883161336722","name":"Washington & Lasalle","routes":["20","56","60","157"],"lon":"-87.632617950439","id":"446"},{"lat":"41.883165330573","name":"Washington & Dearborn","routes":["20","56","60","157"],"lon":"-87.629576325417","id":"447"},{"lat":"41.883181305974","name":"Washington & State","routes":["4","20","56","60","66","151","157"],"lon":"-87.627489566803","id":"448"},{"lat":"41.883185299824","name":"Washington & Wabash","routes":["4","20","56","60","66","147","151","157"],"lon":"-87.625976800919","id":"449"},{"lat":"41.882110945281","name":"Madison & Wabash","routes":["J14","19","20","56","60","66","124","157"],"lon":"-87.625998258591","id":"450"},null,{"lat":"41.882031066899","name":"Madison & Clark","routes":["J14","19","20","56","60","124","157"],"lon":"-87.630686759949","id":"452"},{"lat":"41.882023079055","name":"Madison & Wells","routes":["J14","19","20","56","60","124","157"],"lon":"-87.634098529816","id":"453"},{"lat":"41.881955182343","name":"Madison & N. Wacker","routes":["J14","19","20","56","60","124","157"],"lon":"-87.637419104576","id":"454"},{"lat":"41.881891279489","name":"Madison & Clinton","routes":["J14","19","20","56","192"],"lon":"-87.641034722328","id":"455"},{"lat":"41.88186332197","name":"Madison & Jefferson","routes":["J14","20"],"lon":"-87.642574310303","id":"456"},null,{"lat":"41.881803412961","name":"Madison & Peoria","routes":["20"],"lon":"-87.649483680725","id":"458"},{"lat":"41.881775455404","name":"Madison & Morgan","routes":["20"],"lon":"-87.651913762093","id":"459"},{"lat":"41.881735516015","name":"Madison & Aberdeen ","routes":["20"],"lon":"-87.654252648354","id":"460"},{"lat":"41.881695576602","name":"Madison & Racine","routes":["20"],"lon":"-87.656462788582","id":"461"},{"lat":"41.881623685594","name":"Madison & Throop ","routes":["20"],"lon":"-87.659456133842","id":"462"},{"lat":"41.881587740061","name":"Madison & Loomis ","routes":["20"],"lon":"-87.662068605423","id":"463"},{"lat":"41.881555788458","name":"Madison & Laflin","routes":["20"],"lon":"-87.664552330971","id":"464"},{"lat":"41.881483897293","name":"Madison & Ashland","routes":["20"],"lon":"-87.666531801224","id":"465"},{"lat":"41.881451945639","name":"Madison & Paulina","routes":["20"],"lon":"-87.66910135746","id":"466"},null,{"lat":"41.88138404832","name":"Madison & United Center (1900 W)","routes":["20"],"lon":"-87.674256563187","id":"468"},{"lat":"41.881364078506","name":"Madison & Damen","routes":["20"],"lon":"-87.676455974579","id":"469"},{"lat":"41.881316150929","name":"Madison & Hoyne","routes":["20"],"lon":"-87.678912878036","id":"470"},null,null,{"lat":"41.881200325801","name":"Madison & Western","routes":["20"],"lon":"-87.686787843704","id":"473"},null,null,null,null,{"lat":"41.881080506482","name":"Madison & Francisco","routes":["20"],"lon":"-87.698573470116","id":"478"},{"lat":"41.881052548608","name":"Madison & Sacramento","routes":["20"],"lon":"-87.701073288918","id":"479"},{"lat":"41.881036572675","name":"Madison & Albany ","routes":["20"],"lon":"-87.703422904015","id":"480"},null,{"lat":"41.880968674915","name":"Madison & Spaulding","routes":["20"],"lon":"-87.708567380905","id":"482"},null,{"lat":"41.880912759058","name":"Madison & St. Louis","routes":["20"],"lon":"-87.713840603828","id":"484"},{"lat":"41.880884801111","name":"Madison & Central Park","routes":["20"],"lon":"-87.715981006622","id":"485"},{"lat":"41.880816903189","name":"Madison & Hamlin","routes":["20"],"lon":"-87.720975279808","id":"486"},{"lat":"41.880780957202","name":"Madison & Springfield","routes":["20"],"lon":"-87.723104953766","id":"487"},null,null,null,null,null,null,{"lat":"41.880581256901","name":"Madison & Kenton ","routes":["20"],"lon":"-87.740635871887","id":"494"},{"lat":"41.880569274864","name":"Madison & Kilpatrick","routes":["20"],"lon":"-87.742631435394","id":"495"},{"lat":"41.880533328737","name":"Madison & Cicero","routes":["20"],"lon":"-87.745125889778","id":"496"},{"lat":"41.880493388572","name":"Madison & Lamon","routes":["20"],"lon":"-87.747496962547","id":"497"},{"lat":"41.88047341848","name":"Madison & Lavergne","routes":["20"],"lon":"-87.749991416931","id":"498"},{"lat":"41.880457442402","name":"Madison & Leclaire","routes":["20"],"lon":"-87.752442955971","id":"499"},null,null,{"lat":"41.880345609745","name":"Madison & Long","routes":["20"],"lon":"-87.759942412376","id":"502"},null,null,{"lat":"41.880325639607","name":"Madison & Central","routes":["20"],"lon":"-87.764775753021","id":"505"},{"lat":"41.88031765155","name":"Madison & Parkside","routes":["20"],"lon":"-87.76641190052","id":"506"},{"lat":"41.88031765155","name":"Madison & Waller","routes":["20"],"lon":"-87.767978310585","id":"507"},{"lat":"41.880281705281","name":"Madison & Menard","routes":["20"],"lon":"-87.769662737846","id":"508"},{"lat":"41.880245758992","name":"Madison & Mayfield","routes":["20"],"lon":"-87.771711945534","id":"509"},{"lat":"41.89493013149","name":"Chicago & Austin Terminal","routes":["66"],"lon":"-87.774855494499","id":"510"},{"lat":"41.894710509773","name":"Chicago & Mayfield","routes":["66"],"lon":"-87.772398591042","id":"511"},{"lat":"41.89475044105","name":"Chicago & Menard ","routes":["66"],"lon":"-87.770295739174","id":"512"},{"lat":"41.894774399805","name":"Chicago & Waller ","routes":["66"],"lon":"-87.768042683601","id":"513"},null,{"lat":"41.894818324165","name":"Chicago & Central","routes":["66"],"lon":"-87.765564322472","id":"515"},{"lat":"41.894842282894","name":"Chicago & Pine","routes":["66"],"lon":"-87.763466835022","id":"516"},null,{"lat":"41.89487822097","name":"Chicago & Lockwood","routes":["66"],"lon":"-87.758156061172","id":"518"},null,{"lat":"41.89493013149","name":"Chicago & Leclaire","routes":["66"],"lon":"-87.753263711929","id":"520"},null,{"lat":"41.894942110835","name":"Chicago & Lamon","routes":["66"],"lon":"-87.748349905014","id":"522"},{"lat":"41.894974055743","name":"Chicago & Cicero","routes":["66"],"lon":"-87.746032476425","id":"523"},{"lat":"41.895025966184","name":"Chicago & Kilpatrick","routes":["66"],"lon":"-87.74365067482","id":"524"},{"lat":"41.895101835215","name":"Chicago & Kilbourn ","routes":["66"],"lon":"-87.738474011421","id":"525"},null,{"lat":"41.895193676554","name":"Chicago & Kildare","routes":["66"],"lon":"-87.73360311985","id":"527"},{"lat":"41.895233607529","name":"Chicago & Keeler","routes":["66"],"lon":"-87.731065750122","id":"528"},{"lat":"41.89528551776","name":"Chicago & Karlov","routes":["66"],"lon":"-87.728667855263","id":"529"},{"lat":"41.895321455587","name":"Chicago & Pulaski","routes":["66"],"lon":"-87.726232409477","id":"530"},{"lat":"41.895353400306","name":"Chicago & Springfield","routes":["66"],"lon":"-87.723721861839","id":"531"},null,null,null,{"lat":"41.895445241282","name":"Chicago & St. Louis","routes":["66"],"lon":"-87.714103460312","id":"535"},null,{"lat":"41.895493158261","name":"Chicago & Spaulding","routes":["66"],"lon":"-87.709093093872","id":"537"},{"lat":"41.895513123658","name":"Chicago & Kedzie","routes":["66"],"lon":"-87.70664691925","id":"538"},null,{"lat":"41.895569026737","name":"Chicago & Sacramento","routes":["52","66"],"lon":"-87.702559232712","id":"540"},null,null,{"lat":"41.895592985184","name":"Chicago & Grand","routes":["52","66"],"lon":"-87.699147462845","id":"543"},{"lat":"41.895620936695","name":"Chicago & California","routes":["66"],"lon":"-87.696867585182","id":"544"},{"lat":"41.895628922839","name":"Chicago & Washtenaw","routes":["66"],"lon":"-87.694357037544","id":"545"},null,{"lat":"41.895684825816","name":"Chicago & Campbell","routes":["66"],"lon":"-87.689437866211","id":"547"},{"lat":"41.89570878422","name":"Chicago & Western","routes":["66"],"lon":"-87.687007784843","id":"548"},null,{"lat":"41.895788645502","name":"Chicago & Leavitt","routes":["66"],"lon":"-87.682110071182","id":"550"},{"lat":"41.895832569164","name":"Chicago & Hoyne","routes":["66"],"lon":"-87.679631710052","id":"551"},{"lat":"41.895876492797","name":"Chicago & Damen","routes":["66"],"lon":"-87.677233815193","id":"552"},{"lat":"41.895900451129","name":"Chicago & Wolcott","routes":["66"],"lon":"-87.674733996391","id":"553"},null,null,{"lat":"41.896040207887","name":"Chicago & Ashland","routes":["66"],"lon":"-87.667486667633","id":"556"},{"lat":"41.896100103547","name":"Chicago & Bishop","routes":["66"],"lon":"-87.664139270782","id":"557"},null,{"lat":"41.896156006112","name":"Chicago & Elizabeth ","routes":["66"],"lon":"-87.659547328949","id":"559"},null,{"lat":"41.896231873801","name":"Chicago & Milwaukee","routes":["66"],"lon":"-87.655566930771","id":"561"},{"lat":"41.896251838967","name":"Chicago & Ogden","routes":["66"],"lon":"-87.65429019928","id":"562"},{"lat":"41.89630374837","name":"Chicago & Sangamon ","routes":["66"],"lon":"-87.651264667511","id":"563"},null,{"lat":"41.896363643783","name":"Chicago & Halsted","routes":["66"],"lon":"-87.647611498833","id":"565"},{"lat":"41.896375622859","name":"700 W Chicago","routes":["66"],"lon":"-87.64612019062","id":"566"},{"lat":"41.896423539139","name":"Chicago & Larrabee","routes":["66"],"lon":"-87.642751336098","id":"567"},null,{"lat":"41.896459476326","name":"Chicago & Hudson","routes":["66"],"lon":"-87.640224695206","id":"569"},null,{"lat":"41.896507392544","name":"Chicago & Orleans","routes":["66"],"lon":"-87.637365460396","id":"571"},{"lat":"41.896543329684","name":"Chicago & Franklin (Brown Line)","routes":["37","66"],"lon":"-87.635863423347","id":"572"},null,{"lat":"41.896583259815","name":"Chicago & LaSalle","routes":["66"],"lon":"-87.632972002029","id":"574"},{"lat":"41.896607217882","name":"Chicago & Clark","routes":["66"],"lon":"-87.631373405457","id":"575"},{"lat":"41.896639161958","name":"Chicago & Dearborn","routes":["66"],"lon":"-87.62991964817","id":"576"},{"lat":"41.896659126997","name":"Chicago & State (Red Line)","routes":["66"],"lon":"-87.62839615345","id":"577"},{"lat":"41.89666711301","name":"Chicago & Wabash","routes":["66"],"lon":"-87.626974582672","id":"578"},{"lat":"41.896675099023","name":"Chicago & Rush","routes":["66"],"lon":"-87.625692486763","id":"579"},{"lat":"41.896679092029","name":"Chicago & Michigan","routes":["66"],"lon":"-87.624528408051","id":"580"},null,{"lat":"41.896750966095","name":"Chicago & Fairbanks","routes":["3","26","66","157"],"lon":"-87.620708942413","id":"582"},null,{"lat":"41.895085862795","name":"Fairbanks & Huron","routes":["3","66","120","121","157"],"lon":"-87.620365619659","id":"584"},{"lat":"41.894319181932","name":"Fairbanks & Erie","routes":["66","120","121","157"],"lon":"-87.620338797569","id":"585"},null,{"lat":"41.892322573994","name":"Fairbanks & Ohio","routes":["2","66","120","121"],"lon":"-87.620290517807","id":"587"},null,null,{"lat":"41.89184737211","name":"Grand & Fairbanks/Columbus","routes":["2","29","65","66"],"lon":"-87.620022296906","id":"590"},{"lat":"41.892458345311","name":"Fairbanks & Ohio","routes":["2","66","120","121"],"lon":"-87.620204687119","id":"591"},null,{"lat":"41.894075599106","name":"Fairbanks & Erie","routes":["3","66","120","121","157"],"lon":"-87.620242238045","id":"593"},{"lat":"41.894902179677","name":"Fairbanks & Huron","routes":["3","66","120","121","157"],"lon":"-87.620263695717","id":"594"},null,{"lat":"41.896623189922","name":"Fairbanks & Chicago","routes":["3","66","120","121","157"],"lon":"-87.620301246643","id":"596"},{"lat":"41.896798882094","name":"Chicago & Mies Van Der Rohe","routes":["3","26","66","157"],"lon":"-87.621738910675","id":"597"},null,{"lat":"41.89673898709","name":"Chicago & Michigan","routes":["66"],"lon":"-87.624485492706","id":"599"},{"lat":"41.896723015079","name":"Chicago & Wabash","routes":["66"],"lon":"-87.626700997353","id":"600"},{"lat":"41.896719022076","name":"Chicago & State (Red Line)","routes":["66"],"lon":"-87.628079652786","id":"601"},{"lat":"41.896715029072","name":"Chicago & Dearborn","routes":["66"],"lon":"-87.629619240761","id":"602"},{"lat":"41.896679092029","name":"Chicago & Clark","routes":["66"],"lon":"-87.631062269211","id":"603"},null,null,{"lat":"41.896619196912","name":"Chicago & Franklin (Brown Line)","routes":["66"],"lon":"-87.635520100594","id":"606"},null,null,{"lat":"41.896539336669","name":"Chicago & Hudson","routes":["66"],"lon":"-87.639741897583","id":"609"},null,{"lat":"41.896491420475","name":"Chicago & Larrabee","routes":["66"],"lon":"-87.642622590065","id":"611"},{"lat":"41.896439511225","name":"700 W Chicago","routes":["66"],"lon":"-87.646173834801","id":"612"},{"lat":"41.896435518204","name":"Chicago & Halsted","routes":["66"],"lon":"-87.648169398308","id":"613"},null,{"lat":"41.896363643783","name":"Chicago & Sangamon","routes":["66"],"lon":"-87.651709914207","id":"615"},null,{"lat":"41.896299755341","name":"Chicago Blue Line Station","routes":["66"],"lon":"-87.655100226402","id":"617"},{"lat":"41.896255831999","name":"Chicago & Racine","routes":["66"],"lon":"-87.657401561737","id":"618"},null,{"lat":"41.896183957376","name":"Chicago & Noble","routes":["66"],"lon":"-87.662277817726","id":"620"},{"lat":"41.896156006112","name":"Chicago & Greenview","routes":["66"],"lon":"-87.664713263512","id":"621"},{"lat":"41.896112082672","name":"Chicago & Ashland","routes":["66"],"lon":"-87.667068243027","id":"622"},{"lat":"41.896068159202","name":"Chicago & Paulina","routes":["66"],"lon":"-87.669551968575","id":"623"},null,{"lat":"41.895980312171","name":"Chicago & Wolcott","routes":["66"],"lon":"-87.674476504326","id":"625"},null,null,null,{"lat":"41.895804617746","name":"Chicago & Oakley","routes":["66"],"lon":"-87.684255838394","id":"629"},null,{"lat":"41.895752707938","name":"Chicago & Campbell","routes":["66"],"lon":"-87.689158916473","id":"631"},null,{"lat":"41.895700798087","name":"Chicago & Washtenaw","routes":["66"],"lon":"-87.694142460823","id":"633"},null,null,{"lat":"41.895656874334","name":"Chicago & Grand","routes":["52","66"],"lon":"-87.6997590065","id":"636"},null,{"lat":"41.895624929767","name":"Chicago & Sacramento","routes":["52","66"],"lon":"-87.702687978745","id":"638"},null,null,{"lat":"41.895561040586","name":"Chicago & Spaulding","routes":["66"],"lon":"-87.708749771118","id":"641"},null,{"lat":"41.895513123658","name":"Chicago & St. Louis","routes":["66"],"lon":"-87.713765501976","id":"643"},{"lat":"41.895497151341","name":"Chicago & Central Park","routes":["66"],"lon":"-87.716131210327","id":"644"},null,null,{"lat":"41.895413296609","name":"Chicago & Springfield","routes":["66"],"lon":"-87.723721861839","id":"647"},{"lat":"41.895389338095","name":"Chicago & Pulaski","routes":["66"],"lon":"-87.725969552994","id":"648"},{"lat":"41.895353400306","name":"Chicago & Karlov","routes":["66"],"lon":"-87.728624939919","id":"649"},{"lat":"41.895305483222","name":"Chicago & Keeler","routes":["66"],"lon":"-87.731087207794","id":"650"},{"lat":"41.895261559197","name":"Chicago & Kildare","routes":["66"],"lon":"-87.733570933342","id":"651"},null,{"lat":"41.895177704157","name":"Chicago & Kilbourn ","routes":["66"],"lon":"-87.738302350044","id":"653"},{"lat":"41.895093849006","name":"Chicago & Kilpatrick","routes":["66"],"lon":"-87.743613123894","id":"654"},null,{"lat":"41.895002007524","name":"Chicago & Lamon","routes":["66"],"lon":"-87.748328447342","id":"656"},null,{"lat":"41.894986035079","name":"Chicago & Leclaire","routes":["66"],"lon":"-87.753269076347","id":"658"},null,{"lat":"41.89493811772","name":"Chicago & Lockwood","routes":["66"],"lon":"-87.758172154427","id":"660"},null,{"lat":"41.89489818656","name":"Chicago & Pine","routes":["66"],"lon":"-87.76347219944","id":"662"},{"lat":"41.894886207207","name":"Chicago & Central","routes":["66"],"lon":"-87.765119075775","id":"663"},null,{"lat":"41.894854262255","name":"Chicago & Waller","routes":["66"],"lon":"-87.767688632011","id":"665"},null,{"lat":"41.894782386054","name":"Chicago & Mayfield","routes":["66"],"lon":"-87.772425413132","id":"667"},{"lat":"41.924009359974","name":"Grand & Nordica Terminal","routes":["65","74"],"lon":"-87.801602482796","id":"668"},{"lat":"41.923518428591","name":"Grand & Sayre","routes":["65","74"],"lon":"-87.800862193108","id":"669"},{"lat":"41.923534393899","name":"Grand & Newland","routes":["65","74"],"lon":"-87.799022197723","id":"670"},{"lat":"41.923546367877","name":"Grand & Newcastle ","routes":["65","74"],"lon":"-87.797192931175","id":"671"},{"lat":"41.923558341853","name":"Grand & Oak Park","routes":["65","74"],"lon":"-87.795417308807","id":"672"},null,null,null,null,{"lat":"41.921917886227","name":"Grand & Mobile","routes":["65"],"lon":"-87.783073782921","id":"677"},null,null,{"lat":"41.920548811899","name":"Grand & Austin","routes":["65"],"lon":"-87.775713801384","id":"680"},{"lat":"41.920089786234","name":"Grand & Marmora","routes":["65"],"lon":"-87.773256897926","id":"681"},null,{"lat":"41.919183699794","name":"Grand & Major","routes":["65"],"lon":"-87.768359184265","id":"683"},null,{"lat":"41.91825764221","name":"5500 W Grand","routes":["65"],"lon":"-87.76317179203","id":"685"},{"lat":"41.917846500268","name":"Grand & Long","routes":["65"],"lon":"-87.760999202728","id":"686"},null,{"lat":"41.917211819643","name":"Grand & Latrobe ","routes":["65"],"lon":"-87.757624983788","id":"688"},{"lat":"41.916936390238","name":"Grand & Laramie","routes":["57","65","73"],"lon":"-87.756106853485","id":"689"},{"lat":"41.916808654458","name":"Grand & Leclaire/Armitage","routes":["65"],"lon":"-87.753531932831","id":"690"},{"lat":"41.915251854097","name":"Grand & Lamon","routes":["65"],"lon":"-87.7494764328","id":"691"},{"lat":"41.913950499528","name":"Grand & Cicero","routes":["65"],"lon":"-87.74615585804","id":"692"},{"lat":"41.912968478208","name":"4701 W Grand","routes":["65"],"lon":"-87.743645310402","id":"693"},{"lat":"41.912154107604","name":"Grand & Kenton ","routes":["65"],"lon":"-87.741563916206","id":"694"},{"lat":"41.910980437575","name":"Grand & Kilbourn","routes":["65"],"lon":"-87.738704681396","id":"695"},{"lat":"41.910090190473","name":"Grand & Kostner","routes":["65"],"lon":"-87.736414074898","id":"696"},null,{"lat":"41.909140047583","name":"Grand & Kildare","routes":["65"],"lon":"-87.734005451202","id":"698"},null,{"lat":"41.907167857116","name":"Grand & Karlov","routes":["65"],"lon":"-87.728978991508","id":"700"},null,{"lat":"41.905175643351","name":"Grand & Springfield","routes":["65"],"lon":"-87.724006175995","id":"702"},{"lat":"41.904225427315","name":"Grand & Hamlin","routes":["65"],"lon":"-87.72162437439","id":"703"},{"lat":"41.903450871008","name":"Grand & Lawndale","routes":["65"],"lon":"-87.719634175301","id":"704"},null,null,{"lat":"41.90164220552","name":"Grand & Drake","routes":["65"],"lon":"-87.71511733532","id":"707"},{"lat":"41.901087218421","name":"Grand & Thomas","routes":["65"],"lon":"-87.713695764542","id":"708"},{"lat":"41.900132948749","name":"Grand & Homan","routes":["65"],"lon":"-87.712048888206","id":"709"},{"lat":"41.899470142175","name":"Grand & Augusta","routes":["65"],"lon":"-87.709575891495","id":"710"},null,{"lat":"41.897353906464","name":"Grand & Albany","routes":["65"],"lon":"-87.704318761826","id":"712"},{"lat":"41.896850791053","name":"Grand & Sacramento","routes":["65"],"lon":"-87.703031301498","id":"713"},{"lat":"41.896459476326","name":"Grand & Sacramento Blvd.","routes":["65"],"lon":"-87.702060341835","id":"714"},{"lat":"41.895840555282","name":"Grand & Chicago","routes":["65"],"lon":"-87.70052075386","id":"715"},{"lat":"41.894323175085","name":"Grand & California","routes":["65"],"lon":"-87.696706652641","id":"716"},{"lat":"41.893360817911","name":"Grand & Washtenaw","routes":["65"],"lon":"-87.694265842438","id":"717"},{"lat":"41.892809752087","name":"Grand & Talman","routes":["65"],"lon":"-87.69287109375","id":"718"},{"lat":"41.892362506764","name":"Grand & Rockwell","routes":["65"],"lon":"-87.691766023636","id":"719"},{"lat":"41.891372166691","name":"Grand & Campbell","routes":["65"],"lon":"-87.689309120178","id":"720"},{"lat":"41.890617421405","name":"Grand & Western","routes":["65"],"lon":"-87.686905860901","id":"721"},{"lat":"41.890665342006","name":"Grand & Oakley","routes":["65"],"lon":"-87.684363126755","id":"722"},{"lat":"41.890721249328","name":"Grand & Leavitt","routes":["65"],"lon":"-87.681911587715","id":"723"},{"lat":"41.890749202971","name":"Grand & Hoyne","routes":["65"],"lon":"-87.679460048676","id":"724"},{"lat":"41.890785143351","name":"Grand & Damen","routes":["65"],"lon":"-87.677013874054","id":"725"},{"lat":"41.890833063825","name":"Grand & Wolcott","routes":["65"],"lon":"-87.67457306385","id":"726"},{"lat":"41.890876990896","name":"Grand & Wood","routes":["65"],"lon":"-87.672148346901","id":"727"},{"lat":"41.89090494447","name":"Grand & Paulina","routes":["65"],"lon":"-87.66972899437","id":"728"},{"lat":"41.890940884762","name":"Grand & Ashland","routes":["65"],"lon":"-87.667309641838","id":"729"},{"lat":"41.890956858219","name":"Grand & Armour","routes":["65"],"lon":"-87.665630578995","id":"730"},{"lat":"41.891000785204","name":"Grand & Noble","routes":["65"],"lon":"-87.662369012833","id":"731"},null,null,null,{"lat":"41.891072665661","name":"Grand & Aberdeen","routes":["65"],"lon":"-87.654746174812","id":"735"},{"lat":"41.891084645729","name":"Grand & Morgan","routes":["65"],"lon":"-87.652444839478","id":"736"},{"lat":"41.891108605858","name":"Grand & Peoria","routes":["65"],"lon":"-87.649859189987","id":"737"},{"lat":"41.891148539388","name":"Grand & Halsted/Milwaukee (Blue Line)","routes":["65"],"lon":"-87.647788524628","id":"738"},{"lat":"41.891168506143","name":"Grand & Union","routes":["65"],"lon":"-87.645905613899","id":"739"},null,{"lat":"41.891228406371","name":"530 W Grand","routes":["65"],"lon":"-87.643132209778","id":"741"},{"lat":"41.891448040062","name":"Grand & Kingsbury","routes":["65"],"lon":"-87.639977931976","id":"742"},{"lat":"41.891507940028","name":"Grand & Orleans","routes":["65"],"lon":"-87.637209892273","id":"743"},{"lat":"41.891543879981","name":"Grand & Franklin","routes":["65"],"lon":"-87.635697126389","id":"744"},{"lat":"41.891551866635","name":"Grand & Wells","routes":["65"],"lon":"-87.63416826725","id":"745"},{"lat":"41.8907611831","name":"Illinois & LaSalle","routes":["65"],"lon":"-87.63280570507","id":"746"},{"lat":"41.890789136725","name":"Illinois & Clark","routes":["65"],"lon":"-87.631486058235","id":"747"},null,null,{"lat":"41.890888971001","name":"Illinois & Rush","routes":["29","65"],"lon":"-87.625494003296","id":"750"},{"lat":"41.890900951103","name":"Illinois (Lower) & Michigan","routes":["29","65"],"lon":"-87.624335289001","id":"751"},null,null,{"lat":"41.891016758646","name":"Illinois & McClurg","routes":["2","29","65","66","124"],"lon":"-87.617865800858","id":"754"},{"lat":"41.891056692233","name":"Illinois & Peshtigo","routes":["2","29","65","66","124"],"lon":"-87.61538207531","id":"755"},{"lat":"41.891076659017","name":"Illinois & Lake Shore","routes":["2","29","65","66","124"],"lon":"-87.613161206245","id":"756"},null,{"lat":"41.892322573994","name":"Navy Pier Terminal","routes":["29"],"lon":"-87.610103487968","id":"758"},{"lat":"41.891975157838","name":"Grand & Streeter","routes":["2","29","65","66","124"],"lon":"-87.612190246582","id":"759"},{"lat":"41.891911265006","name":"Grand & Peshtigo","routes":["2","29","65","66","124"],"lon":"-87.615392804146","id":"760"},{"lat":"41.891799452396","name":"Grand & St. Clair","routes":["29","65","120","121"],"lon":"-87.62254357338","id":"761"},null,null,{"lat":"41.89170361286","name":"Grand & State (Red Line)","routes":["65"],"lon":"-87.627789974213","id":"764"},{"lat":"41.891683646272","name":"Grand & Dearborn","routes":["65"],"lon":"-87.629565596581","id":"765"},{"lat":"41.891663679678","name":"Grand & Clark","routes":["65"],"lon":"-87.63095498085","id":"766"},null,null,{"lat":"41.891615759826","name":"Grand & Franklin","routes":["65"],"lon":"-87.63419508934","id":"769"},null,{"lat":"41.891519920015","name":"Grand & Kingsbury","routes":["65"],"lon":"-87.639752626419","id":"771"},{"lat":"41.891320253279","name":"530 W Grand","routes":["65"],"lon":"-87.642778158188","id":"772"},null,null,null,{"lat":"41.891172499493","name":"Grand & Peoria","routes":["65"],"lon":"-87.649853825569","id":"776"},null,{"lat":"41.891144546036","name":"Grand & Aberdeen","routes":["65"],"lon":"-87.654526233673","id":"778"},null,{"lat":"41.891112599212","name":"Grand & Racine","routes":["65"],"lon":"-87.657240629196","id":"780"},{"lat":"41.891112599212","name":"Grand & Ogden","routes":["65"],"lon":"-87.658662199974","id":"781"},{"lat":"41.891064678947","name":"Grand & Noble","routes":["65"],"lon":"-87.662090063095","id":"782"},{"lat":"41.891028738725","name":"Grand & Armour","routes":["65"],"lon":"-87.665389180183","id":"783"},{"lat":"41.891016758646","name":"Grand & Ashland","routes":["65"],"lon":"-87.666960954666","id":"784"},{"lat":"41.890968838309","name":"Grand & Paulina","routes":["65"],"lon":"-87.669476866722","id":"785"},{"lat":"41.890944878127","name":"Grand & Wood","routes":["65"],"lon":"-87.671901583672","id":"786"},{"lat":"41.890900951103","name":"Grand & Wolcott","routes":["65"],"lon":"-87.674363851547","id":"787"},{"lat":"41.890849037309","name":"Grand & Damen","routes":["65"],"lon":"-87.67672419548","id":"788"},{"lat":"41.890825077082","name":"Grand & Hoyne","routes":["65"],"lon":"-87.679224014282","id":"789"},{"lat":"41.890785143351","name":"Grand & Leavitt","routes":["65"],"lon":"-87.68162727356","id":"790"},{"lat":"41.890725242706","name":"Grand & Oakley","routes":["65"],"lon":"-87.684116363525","id":"791"},null,null,{"lat":"41.892354520212","name":"Grand & Rockwell","routes":["65"],"lon":"-87.691562175751","id":"794"},{"lat":"41.892797772343","name":"Grand & Talman","routes":["65"],"lon":"-87.692656517029","id":"795"},{"lat":"41.893364811124","name":"Grand & Washtenaw","routes":["65"],"lon":"-87.694072723389","id":"796"},{"lat":"41.894195394055","name":"Grand & California","routes":["65"],"lon":"-87.696229219437","id":"797"},{"lat":"41.89528551776","name":"Grand & Chicago","routes":["65"],"lon":"-87.69894361496","id":"798"},{"lat":"41.896403574027","name":"Grand & Sacramento","routes":["65"],"lon":"-87.701738476753","id":"799"},{"lat":"41.896998531704","name":"Grand & Sacramento","routes":["65","94"],"lon":"-87.703213691711","id":"800"},{"lat":"41.897246096353","name":"Grand & Albany","routes":["65","94"],"lon":"-87.703857421875","id":"801"},{"lat":"41.898224366624","name":"Grand & Kedzie","routes":["65"],"lon":"-87.706325054169","id":"802"},{"lat":"41.899002979191","name":"Grand & Augusta","routes":["65"],"lon":"-87.708256244659","id":"803"},null,{"lat":"41.901067254766","name":"Grand & Thomas","routes":["65"],"lon":"-87.713459730148","id":"805"},{"lat":"41.9018138912","name":"Grand & Drake","routes":["65"],"lon":"-87.715364098549","id":"806"},null,{"lat":"41.902584474728","name":"Grand & Division","routes":["65"],"lon":"-87.71729528904","id":"808"},{"lat":"41.903462848754","name":"Grand & Lawndale","routes":["65"],"lon":"-87.719510793686","id":"809"},null,{"lat":"41.905111763725","name":"Grand & Springfield","routes":["65"],"lon":"-87.723662853241","id":"811"},{"lat":"41.906265579625","name":"Grand & Pulaski","routes":["65"],"lon":"-87.726575732231","id":"812"},{"lat":"41.907147895362","name":"Grand & Karlov","routes":["65"],"lon":"-87.728759050369","id":"813"},{"lat":"41.90812601394","name":"Grand & Keeler","routes":["65"],"lon":"-87.731253504753","id":"814"},{"lat":"41.908952412651","name":"Grand & Kildare","routes":["65"],"lon":"-87.733340263367","id":"815"},null,{"lat":"41.910018331421","name":"Grand & Kostner","routes":["65"],"lon":"-87.736038565636","id":"817"},{"lat":"41.910968461239","name":"Grand & Kilbourn","routes":["65"],"lon":"-87.738468647003","id":"818"},{"lat":"41.911986441778","name":"Grand & Kenton ","routes":["65"],"lon":"-87.740968465805","id":"819"},{"lat":"41.912904606379","name":"4700 W Grand","routes":["65"],"lon":"-87.743285894394","id":"820"},{"lat":"41.91389860447","name":"Grand & Cicero","routes":["65"],"lon":"-87.74582862854","id":"821"},{"lat":"41.915251854097","name":"Grand & Lamon","routes":["65"],"lon":"-87.749261856079","id":"822"},{"lat":"41.916625033827","name":"Grand & Leclaire/Armitage","routes":["65"],"lon":"-87.752780914307","id":"823"},null,null,{"lat":"41.917395438586","name":"Grand & Lockwood ","routes":["65"],"lon":"-87.758252620697","id":"826"},null,{"lat":"41.918325500334","name":"5500 W Grand","routes":["65"],"lon":"-87.763241529465","id":"828"},{"lat":"41.918888320818","name":"Grand & Central ","routes":["65"],"lon":"-87.766320705414","id":"829"},{"lat":"41.919251556934","name":"Grand & Major","routes":["65"],"lon":"-87.768305540085","id":"830"},null,{"lat":"41.920105752399","name":"Grand & Marmora","routes":["65"],"lon":"-87.772967219353","id":"832"},{"lat":"41.920560786437","name":"Grand & Austin","routes":["65"],"lon":"-87.775408029556","id":"833"},{"lat":"41.921035774647","name":"Grand & Meade","routes":["65"],"lon":"-87.777977585793","id":"834"},null,{"lat":"41.921925869082","name":"Grand & Mobile","routes":["65"],"lon":"-87.782810926437","id":"836"},{"lat":"41.922648313284","name":"Grand & Narragansett","routes":["65"],"lon":"-87.785283923149","id":"837"},{"lat":"41.923262983126","name":"Grand & Natchez","routes":["65"],"lon":"-87.787697911263","id":"838"},null,{"lat":"41.923690055439","name":"Grand & Normandy ","routes":["65","74"],"lon":"-87.79260635376","id":"840"},null,{"lat":"41.923606237734","name":"Grand & New England ","routes":["65","74"],"lon":"-87.797498703003","id":"842"},null,{"lat":"41.923582289798","name":"Grand & Sayre","routes":["65","74"],"lon":"-87.80085682869","id":"844"},{"lat":"41.909072179692","name":"Neva & North Ave","routes":["72"],"lon":"-87.803984284401","id":"845"},{"lat":"41.908872567832","name":"North Ave & Forest","routes":["72"],"lon":"-87.801302075386","id":"846"},{"lat":"41.908904505771","name":"North Ave & Kenilworth","routes":["72"],"lon":"-87.798094153404","id":"847"},{"lat":"41.908944428173","name":"North Ave & Oak Park","routes":["72"],"lon":"-87.795127630234","id":"848"},{"lat":"41.909040241837","name":"North Ave & Linden","routes":["72"],"lon":"-87.792472243309","id":"849"},{"lat":"41.909048226302","name":"North Ave & East","routes":["72"],"lon":"-87.790095806122","id":"850"},{"lat":"41.909096133074","name":"North Ave & Elmwood","routes":["72"],"lon":"-87.787472605705","id":"851"},{"lat":"41.909116094218","name":"North Ave & Narragansett","routes":["72"],"lon":"-87.785149812698","id":"852"},null,{"lat":"41.909128070902","name":"North Ave & Ridgeland","routes":["72","86"],"lon":"-87.783497571945","id":"854"},null,{"lat":"41.909160008713","name":"North Ave & Lombard","routes":["72"],"lon":"-87.780933380127","id":"856"},{"lat":"41.909199930956","name":"North Ave & Taylor","routes":["72"],"lon":"-87.778294086456","id":"857"},null,{"lat":"41.909199930956","name":"North Ave & Mayfield ","routes":["72"],"lon":"-87.772956490517","id":"859"},{"lat":"41.909219892067","name":"North Ave & Menard","routes":["72"],"lon":"-87.770880460739","id":"860"},{"lat":"41.909247837613","name":"North Ave & Waller","routes":["72"],"lon":"-87.768069505692","id":"861"},null,{"lat":"41.909323689748","name":"North Ave & Linder","routes":["72"],"lon":"-87.763182520866","id":"863"},{"lat":"41.909355627462","name":"North Ave & Long","routes":["72"],"lon":"-87.761068940163","id":"864"},{"lat":"41.909383572949","name":"North Ave & Lockwood","routes":["72"],"lon":"-87.758209705353","id":"865"},{"lat":"41.909411518423","name":"North Ave & Laramie","routes":["72"],"lon":"-87.756090760231","id":"866"},{"lat":"41.909451440508","name":"North Ave & Leclaire ","routes":["72"],"lon":"-87.752770185471","id":"867"},{"lat":"41.909467409335","name":"North Ave & Lavergne","routes":["72"],"lon":"-87.751160860062","id":"868"},null,{"lat":"41.909535276805","name":"North Ave & Cicero","routes":["72"],"lon":"-87.746397256851","id":"870"},{"lat":"41.909559230013","name":"North Ave & Kilpatrick","routes":["72"],"lon":"-87.743811607361","id":"871"},{"lat":"41.909615120796","name":"North Ave & Kenton","routes":["72"],"lon":"-87.740560770035","id":"872"},{"lat":"41.909631089582","name":"North Ave & Kilbourn","routes":["72"],"lon":"-87.738752961159","id":"873"},{"lat":"41.909651050559","name":"North Ave & Kostner","routes":["72"],"lon":"-87.736585736275","id":"874"},{"lat":"41.909694964686","name":"North Ave & Grand","routes":["72"],"lon":"-87.734472155571","id":"875"},{"lat":"41.909734886594","name":"North Ave & Keeler","routes":["72"],"lon":"-87.731548547745","id":"876"},null,null,{"lat":"41.909830699071","name":"North Ave & Springfield","routes":["72"],"lon":"-87.724247574806","id":"879"},{"lat":"41.909858644349","name":"North Ave & Hamlin","routes":["72"],"lon":"-87.721785306931","id":"880"},{"lat":"41.909874613074","name":"North Ave & Lawndale","routes":["72"],"lon":"-87.719124555588","id":"881"},{"lat":"41.909910542691","name":"North Ave & Central Park","routes":["72"],"lon":"-87.716576457024","id":"882"},{"lat":"41.909930503581","name":"North Ave & St. Louis ","routes":["72"],"lon":"-87.714478969574","id":"883"},null,{"lat":"41.909994378386","name":"North Ave & Spaulding","routes":["72"],"lon":"-87.710144519806","id":"885"},null,{"lat":"41.910050268787","name":"North Ave & Albany","routes":["72"],"lon":"-87.704817652702","id":"887"},{"lat":"41.91009418264","name":"North Ave & Humboldt","routes":["72"],"lon":"-87.702060341835","id":"888"},{"lat":"41.910110151306","name":"North Ave & Francisco","routes":["72"],"lon":"-87.698938250542","id":"889"},{"lat":"41.910138096463","name":"North Ave & California","routes":["72"],"lon":"-87.697248458862","id":"890"},{"lat":"41.910162049444","name":"North Ave & Washtenaw","routes":["72"],"lon":"-87.694657444954","id":"891"},null,{"lat":"41.91020995538","name":"North Ave & Campbell","routes":["72"],"lon":"-87.689802646637","id":"893"},{"lat":"41.910277822061","name":"North Ave & Western","routes":["72"],"lon":"-87.686948776245","id":"894"},{"lat":"41.910317743604","name":"North Ave & Oakley","routes":["72"],"lon":"-87.684862017632","id":"895"},{"lat":"41.910357665122","name":"North Ave & Leavitt","routes":["72"],"lon":"-87.682437300682","id":"896"},{"lat":"41.910397586616","name":"North Ave & Hoyne","routes":["72"],"lon":"-87.680066227913","id":"897"},{"lat":"41.910449484519","name":"North Ave & Milwaukee/Damen (Blue Line)","routes":["72"],"lon":"-87.67773270607","id":"898"},{"lat":"41.910477429527","name":"North Ave & Wolcott","routes":["72"],"lon":"-87.675125598907","id":"899"},{"lat":"41.910521343086","name":"North Ave & Wood","routes":["72"],"lon":"-87.672679424286","id":"900"},{"lat":"41.910557272339","name":"North Ave & Paulina","routes":["72"],"lon":"-87.670238614082","id":"901"},{"lat":"41.910597193708","name":"North Ave & Ashland","routes":["72"],"lon":"-87.667888998985","id":"902"},{"lat":"41.910609170113","name":"North Ave & Bosworth","routes":["9","72"],"lon":"-87.666285037994","id":"903"},null,null,null,null,null,null,{"lat":"41.910800792298","name":"North Ave & Sheffield","routes":["9","72"],"lon":"-87.653222680092","id":"910"},null,null,{"lat":"41.910888618941","name":"North Ave & Clybourn/Halsted (Red Line)","routes":["9","72"],"lon":"-87.649263739586","id":"913"},null,{"lat":"41.910920555872","name":"North Ave & Orchard","routes":["9","72"],"lon":"-87.645964622498","id":"915"},{"lat":"41.910980437575","name":"North Ave & Larrabee","routes":["9","72"],"lon":"-87.643845677376","id":"916"},{"lat":"41.910976445463","name":"North Ave & Cleveland","routes":["9","72"],"lon":"-87.641109824181","id":"917"},{"lat":"41.910992413908","name":"North Ave & Sedgwick (Brown Line)","routes":["9","72"],"lon":"-87.638829946518","id":"918"},{"lat":"41.911028342896","name":"North Ave & North Park","routes":["9","72"],"lon":"-87.636812925339","id":"919"},{"lat":"41.911052295544","name":"North Ave & Wells","routes":["9","72"],"lon":"-87.634908556938","id":"920"},null,{"lat":"41.911132137636","name":"North Ave & Clark","routes":["9","72"],"lon":"-87.631861567497","id":"922"},{"lat":"41.911279845245","name":"North Ave & Clark Terminal","routes":["9","72"],"lon":"-87.631239295006","id":"923"},{"lat":"41.911196011239","name":"North Ave & Clark","routes":["9","72"],"lon":"-87.631856203079","id":"924"},null,{"lat":"41.911231940112","name":"North Ave & Wells","routes":["9","72"],"lon":"-87.634543776512","id":"926"},{"lat":"41.911200003337","name":"North Ave & Sedgwick (Brown Line)","routes":["9","72"],"lon":"-87.638411521912","id":"927"},{"lat":"41.911172058645","name":"North Ave & Cleveland","routes":["9","72"],"lon":"-87.640755772591","id":"928"},{"lat":"41.911048303436","name":"North Ave & Larrabee","routes":["9","72"],"lon":"-87.64383494854","id":"929"},null,null,null,{"lat":"41.910904587409","name":"North Ave & Fremont","routes":["9","72"],"lon":"-87.651007175446","id":"933"},{"lat":"41.910840713515","name":"North Ave & Sheffield/Kingsbury","routes":["9","72"],"lon":"-87.653979063034","id":"934"},null,null,null,null,{"lat":"41.910673044239","name":"North Ave & Bosworth","routes":["9","72"],"lon":"-87.666258215904","id":"939"},null,{"lat":"41.910625138651","name":"North Ave & Paulina","routes":["72"],"lon":"-87.670013308525","id":"941"},{"lat":"41.9105852173","name":"North Ave & Wood","routes":["72"],"lon":"-87.672480940819","id":"942"},{"lat":"41.910537311645","name":"North Ave & Wolcott","routes":["72"],"lon":"-87.675130963326","id":"943"},null,{"lat":"41.91049739024","name":"North Ave & Milwaukee/Damen (Blue Line)","routes":["72"],"lon":"-87.678145766258","id":"945"},{"lat":"41.910461460953","name":"North Ave & Hoyne","routes":["72"],"lon":"-87.679776549339","id":"946"},{"lat":"41.910425531646","name":"North Ave & Leavitt","routes":["72"],"lon":"-87.682201266289","id":"947"},{"lat":"41.910389602319","name":"North Ave & Oakley","routes":["72"],"lon":"-87.684631347656","id":"948"},{"lat":"41.910357665122","name":"North Ave & Western","routes":["72"],"lon":"-87.686970233917","id":"949"},{"lat":"41.910365649423","name":"North Ave & Campbell","routes":["72"],"lon":"-87.689529061317","id":"950"},{"lat":"41.910345688669","name":"North Ave & Rockwell","routes":["72"],"lon":"-87.691953778267","id":"951"},{"lat":"41.91032572791","name":"North Ave & Washtenaw","routes":["72"],"lon":"-87.694389224052","id":"952"},null,{"lat":"41.910293790681","name":"North Ave & Francisco","routes":["72"],"lon":"-87.69894361496","id":"954"},null,null,{"lat":"41.910245884808","name":"North Ave & Albany","routes":["72"],"lon":"-87.70441532135","id":"957"},null,{"lat":"41.910174025931","name":"North Ave & Spaulding","routes":["72"],"lon":"-87.70980656147","id":"959"},null,{"lat":"41.910114143472","name":"North Ave & Drake","routes":["72"],"lon":"-87.714725732803","id":"961"},{"lat":"41.910082206138","name":"North Ave & Central Park","routes":["72"],"lon":"-87.716554999352","id":"962"},{"lat":"41.910046276618","name":"North Ave & Lawndale","routes":["72"],"lon":"-87.718840241432","id":"963"},{"lat":"41.910026315764","name":"North Ave & Hamlin","routes":["72"],"lon":"-87.721291780472","id":"964"},{"lat":"41.910002362732","name":"North Ave & Springfield","routes":["72"],"lon":"-87.723813056946","id":"965"},null,{"lat":"41.909922519226","name":"North Ave & Karlov","routes":["72"],"lon":"-87.728673219681","id":"967"},{"lat":"41.909890581796","name":"North Ave & Keeler","routes":["72"],"lon":"-87.731103301048","id":"968"},null,null,{"lat":"41.909834691254","name":"North Ave & Kostner/Grand","routes":["72"],"lon":"-87.73678958416","id":"971"},{"lat":"41.909814730334","name":"North Ave & Kilbourn","routes":["72"],"lon":"-87.738398909569","id":"972"},{"lat":"41.909778800664","name":"North Ave & Kenton","routes":["72"],"lon":"-87.740453481674","id":"973"},{"lat":"41.90975085535","name":"North Ave & Kilpatrick","routes":["72"],"lon":"-87.743334174156","id":"974"},{"lat":"41.909718917834","name":"North Ave & Cicero","routes":["72"],"lon":"-87.745866179466","id":"975"},{"lat":"41.909671011529","name":"North Ave & Lamon","routes":["72"],"lon":"-87.749090194702","id":"976"},{"lat":"41.909655042753","name":"North Ave & Lavergne","routes":["72"],"lon":"-87.751021385193","id":"977"},{"lat":"41.909627097386","name":"North Ave & Leclaire ","routes":["72"],"lon":"-87.752539515495","id":"978"},{"lat":"41.909603144203","name":"North Ave & Laramie","routes":["72"],"lon":"-87.755565047264","id":"979"},{"lat":"41.909567214413","name":"North Ave & Lockwood","routes":["72"],"lon":"-87.757989764214","id":"980"},{"lat":"41.909527292401","name":"North Ave & Long","routes":["72"],"lon":"-87.760419845581","id":"981"},null,null,{"lat":"41.909431479469","name":"North Ave & Major","routes":["72"],"lon":"-87.767812013626","id":"984"},{"lat":"41.909407526213","name":"North Ave & Menard","routes":["72"],"lon":"-87.770102620125","id":"985"},{"lat":"41.909367604101","name":"North Ave & Mayfield ","routes":["72"],"lon":"-87.773085236549","id":"986"},{"lat":"41.909347643035","name":"North Ave & Austin","routes":["72"],"lon":"-87.775096893311","id":"987"},{"lat":"41.90926779871","name":"North Ave & Meade","routes":["72"],"lon":"-87.777489423752","id":"988"},{"lat":"41.90922787651","name":"North Ave & Melvina","routes":["72"],"lon":"-87.779983878136","id":"989"},{"lat":"41.909215899846","name":"North Ave & Merrimac","routes":["72"],"lon":"-87.781577110291","id":"990"},null,{"lat":"41.909183962062","name":"North Ave & Narragansett","routes":["72"],"lon":"-87.784404158592","id":"992"},{"lat":"41.909160008713","name":"North Ave & Nagle","routes":["72"],"lon":"-87.786490917206","id":"993"},null,null,{"lat":"41.909116094218","name":"North Ave & Natoma","routes":["72"],"lon":"-87.790964841843","id":"996"},{"lat":"41.909108109761","name":"North Ave & Oak Park","routes":["72"],"lon":"-87.794521450996","id":"997"},{"lat":"41.909068187461","name":"North Ave & New England","routes":["72"],"lon":"-87.797074913979","id":"998"},{"lat":"41.909024272903","name":"North Ave & Sayre","routes":["72"],"lon":"-87.800127267838","id":"999"},{"lat":"41.909016288434","name":"North Ave & Nordica","routes":["72"],"lon":"-87.80197262764","id":"1000"},{"lat":"41.908992335023","name":"North Ave & Neva","routes":["72"],"lon":"-87.803710699081","id":"1001"},null,{"lat":"41.909742870972","name":"Harlem & North Ave","routes":["72","90"],"lon":"-87.805738449097","id":"1003"},{"lat":"41.910609170113","name":"Harlem & Wabansia","routes":["72","90"],"lon":"-87.805770635605","id":"1004"},{"lat":"41.910708973406","name":"Wabansia & Neva","routes":["72"],"lon":"-87.804048657417","id":"1005"},{"lat":"42.017755808411","name":"Paulina & Howard Terminal","routes":["147"],"lon":"-87.672979831696","id":"1006"},null,null,null,null,{"lat":"42.019198516596","name":"Howard & Sheridan","routes":["147","151"],"lon":"-87.666247487068","id":"1011"},{"lat":"42.018026816865","name":"Sheridan & Birchwood","routes":["147","151"],"lon":"-87.665684223175","id":"1012"},null,{"lat":"42.015830818068","name":"Sheridan & Jarvis","routes":["147","151"],"lon":"-87.66507267952","id":"1014"},{"lat":"42.014882250672","name":"Sheridan & Sherwin","routes":["147","151"],"lon":"-87.664659619331","id":"1015"},{"lat":"42.013770256594","name":"Sheridan & Chase","routes":["147","151"],"lon":"-87.66403734684","id":"1016"},{"lat":"42.012749915175","name":"Sheridan & Touhy","routes":["147","151"],"lon":"-87.663457989693","id":"1017"},{"lat":"42.011438592988","name":"Sheridan & Estes","routes":["147","151"],"lon":"-87.662857174873","id":"1018"},{"lat":"42.010210947716","name":"Sheridan & Greenleaf","routes":["147","151"],"lon":"-87.662470936775","id":"1019"},{"lat":"42.009031110452","name":"Sheridan & Lunt","routes":["147","151"],"lon":"-87.662090063095","id":"1020"},{"lat":"42.007767544251","name":"Sheridan & Morse","routes":["147","151"],"lon":"-87.661660909653","id":"1021"},{"lat":"42.006551786519","name":"Sheridan & Farwell","routes":["147","151","155"],"lon":"-87.661274671555","id":"1022"},{"lat":"42.005387826199","name":"Sheridan & Pratt","routes":["147","151","155"],"lon":"-87.660925984383","id":"1023"},null,{"lat":"42.003342871738","name":"Sheridan & North Shore","routes":["147","151","155"],"lon":"-87.660872340202","id":"1025"},null,{"lat":"42.001421431633","name":"Sheridan & Loyola (Red Line)","routes":["147","151","155"],"lon":"-87.660807967186","id":"1027"},{"lat":"42.000185619994","name":"Sheridan & Arthur","routes":["147","151","155"],"lon":"-87.66077041626","id":"1028"},{"lat":"41.998164418264","name":"Sheridan & Broadway/Devon","routes":["136","147","151"],"lon":"-87.660427093506","id":"1029"},{"lat":"41.998192324839","name":"Sheridan & Winthrop","routes":["136","147","151"],"lon":"-87.658501267433","id":"1030"},{"lat":"41.998204284796","name":"Sheridan & Kenmore","routes":["136","147","151"],"lon":"-87.656886577606","id":"1031"},{"lat":"41.99623086146","name":"Sheridan & Rosemont","routes":["136","147","151"],"lon":"-87.655631303787","id":"1032"},{"lat":"41.994424826478","name":"Sheridan & Granville","routes":["136","147","151"],"lon":"-87.655577659607","id":"1033"},{"lat":"41.992184155555","name":"Sheridan & Glenlake","routes":["136","147","151"],"lon":"-87.6554864645","id":"1034"},{"lat":"41.989947392923","name":"Sheridan & Thorndale","routes":["136","147","151"],"lon":"-87.655427455902","id":"1035"},{"lat":"41.987455363382","name":"Sheridan & Ardmore","routes":["136","147","151"],"lon":"-87.655357718468","id":"1036"},{"lat":"41.985334070977","name":"Sheridan & Hollywood","routes":["136","147","151"],"lon":"-87.655293345451","id":"1037"},{"lat":"41.983487851077","name":"Sheridan & Bryn Mawr","routes":["136","147","151"],"lon":"-87.655234336853","id":"1038"},{"lat":"41.981693417583","name":"Sheridan & Catalpa","routes":["136","147","151"],"lon":"-87.655191421509","id":"1039"},{"lat":"41.979803226281","name":"Sheridan & Balmoral","routes":["136","147","151"],"lon":"-87.655121684074","id":"1040"},{"lat":"41.977992737277","name":"Sheridan & Berwyn ","routes":["92","136","147","146","151"],"lon":"-87.655073404312","id":"1041"},{"lat":"41.97622606513","name":"Sheridan & Foster","routes":["151"],"lon":"-87.655041217804","id":"1042"},{"lat":"41.975093454948","name":"Sheridan & Winona","routes":["151"],"lon":"-87.655014395714","id":"1043"},{"lat":"41.973143244444","name":"Sheridan & Argyle","routes":["151"],"lon":"-87.654960751534","id":"1044"},{"lat":"41.97140036776","name":"Sheridan & Ainslie","routes":["151"],"lon":"-87.654917836189","id":"1045"},{"lat":"41.969920679874","name":"Sheridan & Gunnison","routes":["151"],"lon":"-87.654874920845","id":"1046"},{"lat":"41.968963451072","name":"Sheridan & Lawrence","routes":["151"],"lon":"-87.654853463173","id":"1047"},{"lat":"41.967068893328","name":"Sheridan & Leland","routes":["151"],"lon":"-87.654832005501","id":"1048"},{"lat":"41.965202200279","name":"Sheridan & Wilson","routes":["151"],"lon":"-87.654821276665","id":"1049"},{"lat":"41.963383318545","name":"Sheridan & Sunnyside","routes":["151"],"lon":"-87.654799818993","id":"1050"},{"lat":"41.961843610532","name":"Sheridan & Montrose","routes":["151"],"lon":"-87.654772996902","id":"1051"},{"lat":"41.96081046953","name":"Sheridan & Broadway/Montrose","routes":["151"],"lon":"-87.654735445976","id":"1052"},{"lat":"41.95929862297","name":"4242 N Sheridan","routes":["151"],"lon":"-87.65469789505","id":"1053"},{"lat":"41.958213581695","name":"Sheridan & Buena","routes":["151"],"lon":"-87.654676437378","id":"1054"},{"lat":"41.95633466138","name":"Sheridan & Cuyler","routes":["151"],"lon":"-87.65461742878","id":"1055"},{"lat":"41.954419781136","name":"Sheridan & Irving Park","routes":["151"],"lon":"-87.654579877853","id":"1056"},{"lat":"41.952648465688","name":"Sheridan & Sheffield","routes":["151"],"lon":"-87.654166817665","id":"1057"},{"lat":"41.952688360722","name":"Sheridan & Fremont","routes":["151"],"lon":"-87.651720643044","id":"1058"},null,{"lat":"41.952796077189","name":"Sheridan & Pine Grove","routes":["151"],"lon":"-87.647691965103","id":"1060"},{"lat":"41.952081953511","name":"Lake Shore & Grace","routes":["135","146","151","152"],"lon":"-87.645063400269","id":"1061"},{"lat":"41.9502507283","name":"Lake Shore & Waveland","routes":["135","146","151","152"],"lon":"-87.644478678703","id":"1062"},{"lat":"41.948587020573","name":"Lake Shore & Addison","routes":["135","146","151"],"lon":"-87.643470168114","id":"1063"},{"lat":"41.947577603595","name":"Lake Shore & Brompton","routes":["135","146","151"],"lon":"-87.642896175385","id":"1064"},{"lat":"41.946620039119","name":"Lake Shore & Cornelia","routes":["135","146","151"],"lon":"-87.642332911491","id":"1065"},{"lat":"41.945945745504","name":"Lake Shore & Stratford","routes":["135","146","151"],"lon":"-87.641957402229","id":"1066"},{"lat":"41.944676937001","name":"Lake Shore & Hawthorne","routes":["135","146","151"],"lon":"-87.641286849976","id":"1067"},{"lat":"41.943571696438","name":"Lake Shore & Roscoe","routes":["135","146","151"],"lon":"-87.640686035156","id":"1068"},{"lat":"41.942143234404","name":"Lake Shore & Aldine","routes":["151"],"lon":"-87.639918923378","id":"1069"},{"lat":"41.941337216564","name":"Lake Shore & Melrose","routes":["151"],"lon":"-87.63963997364","id":"1070"},null,{"lat":"41.938583910466","name":"Sheridan & Briar","routes":["134","143","151","156"],"lon":"-87.639548778534","id":"1072"},{"lat":"41.937538421069","name":"Sheridan & Barry","routes":["134","143","151","156"],"lon":"-87.639511227608","id":"1073"},{"lat":"41.936417094688","name":"Sheridan & Wellington","routes":["134","143","151","156"],"lon":"-87.639457583427","id":"1074"},{"lat":"41.935395513279","name":"Sheridan & Oakdale","routes":["134","143","151","156"],"lon":"-87.639414668083","id":"1075"},{"lat":"41.934182364101","name":"Sheridan & Surf","routes":["134","143","151","156"],"lon":"-87.639371752739","id":"1076"},{"lat":"41.932993136261","name":"Sheridan & Diversey","routes":["134","143","151","156"],"lon":"-87.639371752739","id":"1077"},{"lat":"41.931324987362","name":"Stockton & Wrightwood","routes":["134","143","151","156"],"lon":"-87.639039158821","id":"1078"},{"lat":"41.928315823762","name":"Stockton & Roslyn","routes":["134","143","151","156"],"lon":"-87.63890504837","id":"1079"},{"lat":"41.926539791898","name":"Stockton & Arlington","routes":["134","143","151","156"],"lon":"-87.637783885002","id":"1080"},{"lat":"41.925522043489","name":"Stockton & Fullerton","routes":["151","156"],"lon":"-87.636040449142","id":"1081"},{"lat":"41.922149388604","name":"Stockton & Webster","routes":["151","156"],"lon":"-87.635761499405","id":"1082"},{"lat":"41.920313312187","name":"Stockton & Dickens","routes":["151","156"],"lon":"-87.635659575462","id":"1083"},{"lat":"41.918776555443","name":"Stockton & Armitage","routes":["151","156"],"lon":"-87.634581327438","id":"1084"},{"lat":"41.915722890008","name":"Stockton & Lincoln","routes":["151","156"],"lon":"-87.63307929039","id":"1085"},{"lat":"41.913655096329","name":"Stockton & LaSalle","routes":["151","156"],"lon":"-87.631754279137","id":"1086"},{"lat":"41.910509366664","name":"Lake Shore & North Ave","routes":["151"],"lon":"-87.626282572746","id":"1087"},{"lat":"41.909247837613","name":"Lake Shore & Burton","routes":["151"],"lon":"-87.626153826714","id":"1088"},{"lat":"41.907567090873","name":"Lake Shore & Schiller","routes":["151"],"lon":"-87.625751495361","id":"1089"},{"lat":"41.906636872349","name":"Lake Shore & Banks","routes":["151"],"lon":"-87.625515460968","id":"1090"},{"lat":"41.905666715844","name":"Lake Shore & Goethe","routes":["151"],"lon":"-87.625274062157","id":"1091"},{"lat":"41.904704529605","name":"Lake Shore & Scott","routes":["151"],"lon":"-87.62510240078","id":"1092"},{"lat":"41.903822180101","name":"Lake Shore & Division","routes":["151"],"lon":"-87.624979019165","id":"1093"},{"lat":"41.903307137876","name":"Lake Shore & Elm","routes":["151"],"lon":"-87.624812722206","id":"1094"},{"lat":"41.902261070338","name":"Lake Shore & Cedar","routes":["151"],"lon":"-87.624496221542","id":"1095"},{"lat":"41.900943479968","name":"Lake Shore & Oak","routes":["151"],"lon":"-87.624287009239","id":"1096"},{"lat":"41.899410249676","name":"Michigan & Delaware","routes":["143","147","146","148","151"],"lon":"-87.624244093895","id":"1097"},{"lat":"41.897789138027","name":"Michigan & Pearson","routes":["10","125","143","147","146","148","151"],"lon":"-87.624233365059","id":"1098"},null,{"lat":"41.894351127152","name":"Michigan & Erie","routes":["3","10","26","125","143","147","146","148","151"],"lon":"-87.624362111092","id":"1100"},{"lat":"41.892717907321","name":"Michigan & Ohio","routes":["2","3","10","26","143","147","146","148","151","157"],"lon":"-87.624335289001","id":"1101"},{"lat":"41.891136559331","name":"Michigan & Illinois","routes":["2","3","10","26","143","147","146","148","151","157"],"lon":"-87.624297738075","id":"1102"},{"lat":"41.890138213421","name":"Michigan & Hubbard (Wrigley Bldg.)","routes":["2","3","10","26","66","143","147","146","148","151","157"],"lon":"-87.624249458313","id":"1103"},{"lat":"41.886935414427","name":"Michigan & South Water","routes":["3","26","66","143","147","151","157"],"lon":"-87.624651789665","id":"1104"},{"lat":"41.885106312544","name":"Michigan & Lake/Randolph","routes":["3","4","19","26","66","124","143","147","151","157"],"lon":"-87.624635696411","id":"1105"},{"lat":"41.883428924177","name":"Michigan & Washington","routes":["3","4","19","20","26","60","66","124","143","147","151","157"],"lon":"-87.624565958977","id":"1106"},{"lat":"41.881216301693","name":"Michigan & Madison/Monroe","routes":["3","4","26","143","147","151"],"lon":"-87.624523043633","id":"1107"},{"lat":"41.879383041994","name":"Adams & S. Wacker","routes":["1","7","28","126","134","135","136","130","151","156"],"lon":"-87.637048959732","id":"1108"},{"lat":"41.878009061249","name":"Canal & Adams/Jackson","routes":["1","28"],"lon":"-87.639484405518","id":"1109"},{"lat":"41.878428448039","name":"Michigan & Jackson","routes":["3","4","J14","26","143","147"],"lon":"-87.62444794178","id":"1110"},{"lat":"41.875764296593","name":"Congress & Wabash","routes":["147"],"lon":"-87.62581050396","id":"1111"},null,{"lat":"41.876870711802","name":"State & Van Buren","routes":["2","10","29","130","147","148","146"],"lon":"-87.627607584","id":"1113"},null,{"lat":"41.879403012427","name":"State & Adams","routes":["2","10","29","147","148","146"],"lon":"-87.627666592598","id":"1115"},null,{"lat":"41.881843352307","name":"State & Madison","routes":["2","10","29","147","148","146"],"lon":"-87.627752423286","id":"1117"},null,{"lat":"41.884686969581","name":"Michigan & Randolph","routes":["3","6","20","26","66","143","147","151","157"],"lon":"-87.624351382256","id":"1119"},{"lat":"41.886699790703","name":"Michigan & South Water","routes":["3","6","20","26","66","143","147","148","146","151","157"],"lon":"-87.624415755272","id":"1120"},{"lat":"41.888045629768","name":"Michigan & E. Wacker","routes":["3","2","6","10","20","26","66","151","157"],"lon":"-87.624405026436","id":"1121"},{"lat":"41.890178147557","name":"Michigan & Hubbard (Tribune Bldg.)","routes":["3","2","10","26","66","143","147","148","146","151","157"],"lon":"-87.623981237411","id":"1122"},{"lat":"41.891675659635","name":"Michigan & Grand","routes":["3","2","10","26","143","147","148","146","151","157"],"lon":"-87.624045610428","id":"1123"},{"lat":"41.893225048512","name":"Michigan & Ontario","routes":["3","10","26","125","143","147","148","146","151"],"lon":"-87.624077796936","id":"1124"},{"lat":"41.894834296652","name":"Michigan & Huron","routes":["3","10","26","125","143","147","148","146","151"],"lon":"-87.624126076698","id":"1125"},{"lat":"41.89649940651","name":"Michigan & Chicago","routes":["3","10","26","125"],"lon":"-87.624142169952","id":"1126"},{"lat":"41.898096593399","name":"Michigan & Chestnut","routes":["143","147","148","146","151"],"lon":"-87.623970508575","id":"1127"},{"lat":"41.899478127837","name":"Michigan & Delaware/Walton","routes":["143","147","148","146","151"],"lon":"-87.624024152756","id":"1128"},{"lat":"41.900604096227","name":"Michigan & Oak","routes":["151"],"lon":"-87.624099254608","id":"1129"},{"lat":"41.902420776414","name":"Lake Shore & Cedar","routes":["151"],"lon":"-87.624442577362","id":"1130"},{"lat":"41.903267211949","name":"Lake Shore & Elm","routes":["151"],"lon":"-87.624716162682","id":"1131"},{"lat":"41.904185501962","name":"Lake Shore & Division","routes":["151"],"lon":"-87.624968290329","id":"1132"},{"lat":"41.904952064379","name":"Lake Shore & Scott","routes":["151"],"lon":"-87.625032663345","id":"1133"},{"lat":"41.906073943827","name":"Lake Shore & Goethe","routes":["151"],"lon":"-87.625268697739","id":"1134"},{"lat":"41.907036109428","name":"Lake Shore & Banks","routes":["151"],"lon":"-87.625526189804","id":"1135"},{"lat":"41.908082098734","name":"Lake Shore & Schiller","routes":["151"],"lon":"-87.625789046288","id":"1136"},{"lat":"41.909667019336","name":"Lake Shore & Burton","routes":["151"],"lon":"-87.626127004623","id":"1137"},{"lat":"41.910525335226","name":"Lake Shore & North Ave","routes":["151"],"lon":"-87.626186013222","id":"1138"},{"lat":"41.913794814229","name":"Stockton & LaSalle","routes":["151","156"],"lon":"-87.631668448448","id":"1139"},{"lat":"41.916014291839","name":"Stockton & Lincoln","routes":["151","156"],"lon":"-87.633229494095","id":"1140"},{"lat":"41.918572982293","name":"Stockton & Armitage","routes":["151","156"],"lon":"-87.634431123734","id":"1141"},{"lat":"41.920249447709","name":"Stockton & Dickens","routes":["151","156"],"lon":"-87.635563015938","id":"1142"},{"lat":"41.921917886227","name":"Stockton & Webster","routes":["151","156"],"lon":"-87.635648846626","id":"1143"},{"lat":"41.925494105068","name":"Stockton & Fullerton","routes":["151","156"],"lon":"-87.635927796364","id":"1144"},{"lat":"41.926595667811","name":"Stockton & Arlington","routes":["134","143","151","156"],"lon":"-87.637724876404","id":"1145"},{"lat":"41.928315823762","name":"Stockton & Roslyn","routes":["134","143","151","156"],"lon":"-87.638808488846","id":"1146"},{"lat":"41.931261133906","name":"Stockton & Wrightwood","routes":["134","143","151","156"],"lon":"-87.638931870461","id":"1147"},{"lat":"41.933021071397","name":"Sheridan & Diversey","routes":["77","134","143","151","156"],"lon":"-87.63928592205","id":"1148"},{"lat":"41.934497625482","name":"Sheridan & Surf","routes":["77","134","143","151","156"],"lon":"-87.639291286469","id":"1149"},{"lat":"41.935790579905","name":"Sheridan & Oakdale","routes":["77","134","143","151","156"],"lon":"-87.639344930649","id":"1150"},{"lat":"41.93676426902","name":"Sheridan & Wellington","routes":["77","134","143","151","156"],"lon":"-87.639382481575","id":"1151"},{"lat":"41.937905541436","name":"Sheridan & Barry","routes":["77","134","143","151","156"],"lon":"-87.639430761337","id":"1152"},{"lat":"41.938723573782","name":"Sheridan & Briar","routes":["77","134","143","151","156"],"lon":"-87.639462947845","id":"1153"},{"lat":"41.939996491053","name":"Sheridan & Belmont","routes":["134","143","151"],"lon":"-87.639484405518","id":"1154"},{"lat":"41.940371577816","name":"Sheridan & Belmont","routes":["135","146","151"],"lon":"-87.63950586319","id":"1155"},{"lat":"41.942358702794","name":"Lake Shore & Aldine","routes":["135","146","151"],"lon":"-87.639929652214","id":"1156"},{"lat":"41.943523815547","name":"Lake Shore & Roscoe","routes":["135","146","151"],"lon":"-87.640562653542","id":"1157"},null,{"lat":"41.946173170775","name":"Lake Shore & Stratford","routes":["135","146","151"],"lon":"-87.641978859901","id":"1159"},{"lat":"41.946807563295","name":"Lake Shore & Cornelia","routes":["135","146","151"],"lon":"-87.642349004745","id":"1160"},{"lat":"41.947805023044","name":"Lake Shore & Brompton","routes":["135","146","151"],"lon":"-87.642928361893","id":"1161"},{"lat":"41.948830395398","name":"Lake Shore & Addison","routes":["135","146","151"],"lon":"-87.643529176712","id":"1162"},{"lat":"41.950442231439","name":"Lake Shore & Waveland","routes":["135","146","152","151"],"lon":"-87.644494771957","id":"1163"},{"lat":"41.95301948854","name":"Lake Shore & W. Sheridan (3900 N)","routes":["151"],"lon":"-87.644961476326","id":"1164"},{"lat":"41.9528519301","name":"Sheridan & Pine Grove","routes":["80","151"],"lon":"-87.648046016693","id":"1165"},{"lat":"41.952772140212","name":"Sheridan & Broadway","routes":["151"],"lon":"-87.650052309036","id":"1166"},{"lat":"41.95273224523","name":"Sheridan & Fremont","routes":["151"],"lon":"-87.652326822281","id":"1167"},{"lat":"41.952915761938","name":"Sheridan & Byron","routes":["151"],"lon":"-87.654456496239","id":"1168"},{"lat":"41.953809400966","name":"Sheridan & Dakin","routes":["151"],"lon":"-87.654483318329","id":"1169"},{"lat":"41.954651165555","name":"Sheridan & Irving Park","routes":["151"],"lon":"-87.654499411583","id":"1170"},{"lat":"41.956725609025","name":"Sheridan & Belle Plaine","routes":["151"],"lon":"-87.654542326927","id":"1171"},null,{"lat":"41.959210862966","name":"4225 N Sheridan","routes":["151"],"lon":"-87.65461742878","id":"1173"},{"lat":"41.961085709503","name":"Sheridan & Broadway/Montrose","routes":["151"],"lon":"-87.654665708542","id":"1174"},{"lat":"41.961839621603","name":"Sheridan & Montrose","routes":["151"],"lon":"-87.654681801796","id":"1175"},{"lat":"41.963830066237","name":"Sheridan & Sunnyside","routes":["151"],"lon":"-87.654719352722","id":"1176"},{"lat":"41.965357760122","name":"Sheridan & Wilson","routes":["151"],"lon":"-87.654730081558","id":"1177"},{"lat":"41.967172596894","name":"Sheridan & Leland","routes":["151"],"lon":"-87.654740810394","id":"1178"},{"lat":"41.969250621223","name":"Sheridan & Lawrence","routes":["151"],"lon":"-87.654767632484","id":"1179"},{"lat":"41.970283625367","name":"Sheridan & Gunnison","routes":["151"],"lon":"-87.654789090157","id":"1180"},{"lat":"41.971735386661","name":"Sheridan & Ainslie","routes":["151"],"lon":"-87.654842734337","id":"1181"},{"lat":"41.973526112567","name":"Sheridan & Argyle","routes":["151"],"lon":"-87.654896378517","id":"1182"},{"lat":"41.975420478266","name":"Sheridan & Winona","routes":["151"],"lon":"-87.654944658279","id":"1183"},{"lat":"41.976620878734","name":"Sheridan & Foster","routes":["136","147","151"],"lon":"-87.654960751534","id":"1184"},{"lat":"41.978188144956","name":"Sheridan & Berwyn ","routes":["136","147","151"],"lon":"-87.654987573624","id":"1185"},{"lat":"41.980086359774","name":"Sheridan & Balmoral","routes":["136","147","151"],"lon":"-87.655046582222","id":"1186"},{"lat":"41.981805072698","name":"Sheridan & Catalpa","routes":["136","147","151"],"lon":"-87.655110955238","id":"1187"},{"lat":"41.983583552777","name":"Sheridan & Bryn Mawr","routes":["136","147","151"],"lon":"-87.655148506165","id":"1188"},{"lat":"41.98540185773","name":"Sheridan & Hollywood","routes":["136","147","151"],"lon":"-87.655207514763","id":"1189"},{"lat":"41.987523147877","name":"Sheridan & Ardmore","routes":["136","147","151"],"lon":"-87.655261158943","id":"1190"},{"lat":"41.99027035281","name":"Sheridan & Thorndale","routes":["136","147","151"],"lon":"-87.655341625214","id":"1191"},{"lat":"41.99251906512","name":"Sheridan & Glenlake","routes":["136","147","151"],"lon":"-87.655400633812","id":"1192"},null,null,null,null,null,{"lat":"41.994799592918","name":"Sheridan & Granville","routes":["136","147","151"],"lon":"-87.655513286591","id":"1198"},{"lat":"41.996629537774","name":"Sheridan & Rosemont","routes":["136","147","151"],"lon":"-87.655566930771","id":"1199"},{"lat":"41.998268071196","name":"Sheridan & Kenmore","routes":["136","147","151"],"lon":"-87.656977772713","id":"1200"},{"lat":"41.998256111251","name":"Sheridan & Winthrop","routes":["136","147","151"],"lon":"-87.658351063728","id":"1201"},null,{"lat":"42.00022548526","name":"Sheridan & Arthur (Red Line)","routes":["147","155","151"],"lon":"-87.660684585571","id":"1203"},{"lat":"42.00169649612","name":"Sheridan & Loyola","routes":["147","155","151"],"lon":"-87.660732865334","id":"1204"},null,{"lat":"42.003896969205","name":"Sheridan & North Shore","routes":["147","155","151"],"lon":"-87.660791873932","id":"1206"},null,{"lat":"42.005838265424","name":"Sheridan & Pratt","routes":["147","151"],"lon":"-87.660909891129","id":"1208"},{"lat":"42.006898578798","name":"Sheridan & Farwell","routes":["147","151"],"lon":"-87.661221027374","id":"1209"},